[
 {
   "FIELD1": 0,
   "nameRest": "El Dorado",
   "latitudeRest": "61.18137",
   "longitudeRest": "-149.86848",
   "rating": 4.5,
   "code": "AK"
 },
 {
   "FIELD1": 1,
   "nameRest": "Serrano's Mexican Grill",
   "latitudeRest": "61.1955753109894",
   "longitudeRest": "-149.880023123542",
   "rating": 4,
   "code": "AK"
 },
 {
   "FIELD1": 2,
   "nameRest": "Xalos Mexican Grill",
   "latitudeRest": "61.220093",
   "longitudeRest": "-149.8193321",
   "rating": 4,
   "code": "AK"
 },
 {
   "FIELD1": 3,
   "nameRest": "Tequila 61",
   "latitudeRest": "61.2185679844363",
   "longitudeRest": "-149.890711158514",
   "rating": 4,
   "code": "AK"
 },
 {
   "FIELD1": 4,
   "nameRest": "El Jefe Taco Joint",
   "latitudeRest": "61.174022",
   "longitudeRest": "-149.882671",
   "rating": 4.5,
   "code": "AK"
 },
 {
   "FIELD1": 5,
   "nameRest": "Pancho's Villa",
   "latitudeRest": "61.1920356750488",
   "longitudeRest": "-149.906478881836",
   "rating": 4,
   "code": "AK"
 },
 {
   "FIELD1": 6,
   "nameRest": "Clandestino",
   "latitudeRest": "61.2186372358068",
   "longitudeRest": "-149.877783916891",
   "rating": 4.5,
   "code": "AK"
 },
 {
   "FIELD1": 7,
   "nameRest": "Seoul Casa",
   "latitudeRest": "61.1456216856811",
   "longitudeRest": "-149.869214947864",
   "rating": 4.5,
   "code": "AK"
 },
 {
   "FIELD1": 8,
   "nameRest": "Pedro's Mexican Grill",
   "latitudeRest": "61.2069567826196",
   "longitudeRest": "-149.807691089809",
   "rating": 4.5,
   "code": "AK"
 },
 {
   "FIELD1": 9,
   "nameRest": "El Green-Go's",
   "latitudeRest": "61.218552",
   "longitudeRest": "-149.904349",
   "rating": 4.5,
   "code": "AK"
 },
 {
   "FIELD1": 10,
   "nameRest": "Xalos Burrito Express",
   "latitudeRest": "61.1884614061777",
   "longitudeRest": "-149.8691625553965",
   "rating": 4.5,
   "code": "AK"
 },
 {
   "FIELD1": 11,
   "nameRest": "Xalos Burrito Express",
   "latitudeRest": "61.1288012229088",
   "longitudeRest": "-149.884616374962",
   "rating": 4,
   "code": "AK"
 },
 {
   "FIELD1": 12,
   "nameRest": "EL Pastor",
   "latitudeRest": "61.33183",
   "longitudeRest": "-149.568567",
   "rating": 4.5,
   "code": "AK"
 },
 {
   "FIELD1": 13,
   "nameRest": "La Cabana Mexican Restaurant",
   "latitudeRest": "61.2183028641787",
   "longitudeRest": "-149.87865551430167",
   "rating": 3.5,
   "code": "AK"
 },
 {
   "FIELD1": 14,
   "nameRest": "Serrano's Mexican Grill",
   "latitudeRest": "61.1805326",
   "longitudeRest": "-149.833257",
   "rating": 4,
   "code": "AK"
 },
 {
   "FIELD1": 15,
   "nameRest": "Taco Loco",
   "latitudeRest": "61.173325",
   "longitudeRest": "-149.894096",
   "rating": 4.5,
   "code": "AK"
 },
 {
   "FIELD1": 16,
   "nameRest": "Oscar's Taco Grande",
   "latitudeRest": "61.2194350343344",
   "longitudeRest": "-149.85786069397",
   "rating": 4,
   "code": "AK"
 },
 {
   "FIELD1": 17,
   "nameRest": "Los Arcos",
   "latitudeRest": "61.1657219",
   "longitudeRest": "-149.8451996",
   "rating": 3.5,
   "code": "AK"
 },
 {
   "FIELD1": 18,
   "nameRest": "El Rodeo Mexican Restaurant",
   "latitudeRest": "61.21882",
   "longitudeRest": "-149.73316",
   "rating": 4,
   "code": "AK"
 },
 {
   "FIELD1": 19,
   "nameRest": "Taco King",
   "latitudeRest": "61.195692",
   "longitudeRest": "-149.883845",
   "rating": 3.5,
   "code": "AK"
 },
 {
   "FIELD1": 20,
   "nameRest": "Mexico In Alaska Restaurant",
   "latitudeRest": "61.15465",
   "longitudeRest": "-149.86322",
   "rating": 3.5,
   "code": "AK"
 },
 {
   "FIELD1": 21,
   "nameRest": "Gallo's Mexican Restaurant",
   "latitudeRest": "61.1425704956055",
   "longitudeRest": "-149.863220214844",
   "rating": 3,
   "code": "AK"
 },
 {
   "FIELD1": 22,
   "nameRest": "Mexico Lindo",
   "latitudeRest": "61.18101",
   "longitudeRest": "-149.90613",
   "rating": 4.5,
   "code": "AK"
 },
 {
   "FIELD1": 23,
   "nameRest": "Don Jose's",
   "latitudeRest": "61.1949043273926",
   "longitudeRest": "-149.842041015625",
   "rating": 3,
   "code": "AK"
 },
 {
   "FIELD1": 24,
   "nameRest": "Hacienda Mexican Restaurant",
   "latitudeRest": "61.21028",
   "longitudeRest": "-149.76246",
   "rating": 3.5,
   "code": "AK"
 },
 {
   "FIELD1": 25,
   "nameRest": "Burrito Heaven",
   "latitudeRest": "61.2220344543457",
   "longitudeRest": "-149.779144287109",
   "rating": 4,
   "code": "AK"
 },
 {
   "FIELD1": 26,
   "nameRest": "Jalapeno's",
   "latitudeRest": "61.327106",
   "longitudeRest": "-149.568842",
   "rating": 4,
   "code": "AK"
 },
 {
   "FIELD1": 27,
   "nameRest": "Burrito Azteca",
   "latitudeRest": "61.171954725519",
   "longitudeRest": "-149.968131780624",
   "rating": 5,
   "code": "AK"
 },
 {
   "FIELD1": 28,
   "nameRest": "Tasty Traveler",
   "latitudeRest": "61.2139944",
   "longitudeRest": "-149.9016976",
   "rating": 5,
   "code": "AK"
 },
 {
   "FIELD1": 29,
   "nameRest": "Mochileros Street Food",
   "latitudeRest": "61.130152",
   "longitudeRest": "-149.860117",
   "rating": 4.5,
   "code": "AK"
 },
 {
   "FIELD1": 30,
   "nameRest": "Garcia's Cantina & Cafe",
   "latitudeRest": "61.3278923034668",
   "longitudeRest": "-149.572082519531",
   "rating": 3,
   "code": "AK"
 },
 {
   "FIELD1": 31,
   "nameRest": "Benny's Food Wagon",
   "latitudeRest": "61.19273",
   "longitudeRest": "-149.87166",
   "rating": 4.5,
   "code": "AK"
 },
 {
   "FIELD1": 32,
   "nameRest": "Bear Tooth Grill",
   "latitudeRest": "61.19599",
   "longitudeRest": "-149.9075",
   "rating": 4,
   "code": "AK"
 },
 {
   "FIELD1": 33,
   "nameRest": "Las Margaritas Mexican & Italian Restaurant",
   "latitudeRest": "61.14522",
   "longitudeRest": "-149.88964",
   "rating": 3,
   "code": "AK"
 },
 {
   "FIELD1": 34,
   "nameRest": "Burrito Factory",
   "latitudeRest": "61.19478",
   "longitudeRest": "-149.77807",
   "rating": 4,
   "code": "AK"
 },
 {
   "FIELD1": 35,
   "nameRest": "Taco King",
   "latitudeRest": "61.18114",
   "longitudeRest": "-149.81375",
   "rating": 4,
   "code": "AK"
 },
 {
   "FIELD1": 36,
   "nameRest": "AK Alchemist",
   "latitudeRest": "61.2188408",
   "longitudeRest": "-149.883622",
   "rating": 4,
   "code": "AK"
 },
 {
   "FIELD1": 37,
   "nameRest": "Bear Tooth Theatre Pub",
   "latitudeRest": "61.1960247699159",
   "longitudeRest": "-149.907248783846",
   "rating": 4.5,
   "code": "AK"
 },
 {
   "FIELD1": 38,
   "nameRest": "Chepo's Mexican Restaurant",
   "latitudeRest": "61.3249740600586",
   "longitudeRest": "-149.569366455078",
   "rating": 3.5,
   "code": "AK"
 },
 {
   "FIELD1": 39,
   "nameRest": "La Mex",
   "latitudeRest": "61.1461962",
   "longitudeRest": "-149.8790405",
   "rating": 2.5,
   "code": "AK"
 },
 {
   "FIELD1": 40,
   "nameRest": "Burrito King",
   "latitudeRest": "61.18629",
   "longitudeRest": "-149.88354",
   "rating": 3,
   "code": "AK"
 },
 {
   "FIELD1": 41,
   "nameRest": "Jalapeno's",
   "latitudeRest": "61.1173717157889",
   "longitudeRest": "-149.863388165832",
   "rating": 3,
   "code": "AK"
 },
 {
   "FIELD1": 42,
   "nameRest": "Taco King",
   "latitudeRest": "61.2309784673807",
   "longitudeRest": "-149.873397746872",
   "rating": 4,
   "code": "AK"
 },
 {
   "FIELD1": 43,
   "nameRest": "Gallo's Mexican Restaurant",
   "latitudeRest": "61.1452562783471",
   "longitudeRest": "-149.891429704649",
   "rating": 3,
   "code": "AK"
 },
 {
   "FIELD1": 44,
   "nameRest": "Taco King",
   "latitudeRest": "61.17655",
   "longitudeRest": "-149.94188",
   "rating": 3.5,
   "code": "AK"
 },
 {
   "FIELD1": 45,
   "nameRest": "International House Of Hotdogs",
   "latitudeRest": "61.21826",
   "longitudeRest": "-149.90314",
   "rating": 5,
   "code": "AK"
 },
 {
   "FIELD1": 46,
   "nameRest": "Kava's",
   "latitudeRest": "61.197959",
   "longitudeRest": "-149.886102",
   "rating": 3,
   "code": "AK"
 },
 {
   "FIELD1": 47,
   "nameRest": "Lunas Mexican Food",
   "latitudeRest": "61.234705",
   "longitudeRest": "-149.766508",
   "rating": 3.5,
   "code": "AK"
 },
 {
   "FIELD1": 48,
   "nameRest": "Johnny's Kitchen Food Truck",
   "latitudeRest": "61.220288199974426",
   "longitudeRest": "-149.85697456672102",
   "rating": 4,
   "code": "AK"
 },
 {
   "FIELD1": 49,
   "nameRest": "Southside Grill",
   "latitudeRest": "61.10361",
   "longitudeRest": "-149.8593",
   "rating": 4.5,
   "code": "AK"
 },
 {
   "FIELD1": 50,
   "nameRest": "El Barrio",
   "latitudeRest": "33.5169035",
   "longitudeRest": "-86.8030741",
   "rating": 4.5,
   "code": "AL"
 },
 {
   "FIELD1": 51,
   "nameRest": "Maya Mexican Restaurant",
   "latitudeRest": "33.4662097592089",
   "longitudeRest": "-86.8212451057358",
   "rating": 4.5,
   "code": "AL"
 },
 {
   "FIELD1": 52,
   "nameRest": "Taqueria Mexico",
   "latitudeRest": "33.379987",
   "longitudeRest": "-86.800498",
   "rating": 4,
   "code": "AL"
 },
 {
   "FIELD1": 53,
   "nameRest": "Los Amigos Mexican Restaurant",
   "latitudeRest": "33.5117725",
   "longitudeRest": "-86.78779267",
   "rating": 4,
   "code": "AL"
 },
 {
   "FIELD1": 54,
   "nameRest": "La Calle Tacos & Snacks",
   "latitudeRest": "33.640365",
   "longitudeRest": "-86.630612",
   "rating": 4.5,
   "code": "AL"
 },
 {
   "FIELD1": 55,
   "nameRest": "Baja California Cantina and Grill",
   "latitudeRest": "33.387425",
   "longitudeRest": "-86.808184",
   "rating": 4.5,
   "code": "AL"
 },
 {
   "FIELD1": 56,
   "nameRest": "Margaronas Cantina",
   "latitudeRest": "33.44705",
   "longitudeRest": "-86.82785",
   "rating": 4,
   "code": "AL"
 },
 {
   "FIELD1": 57,
   "nameRest": "Taqueria Los Primos",
   "latitudeRest": "33.40003",
   "longitudeRest": "-86.8025716",
   "rating": 4,
   "code": "AL"
 },
 {
   "FIELD1": 58,
   "nameRest": "Little Donkey - Homewood",
   "latitudeRest": "33.479426",
   "longitudeRest": "-86.794907",
   "rating": 3.5,
   "code": "AL"
 },
 {
   "FIELD1": 59,
   "nameRest": "Taqueria Tafoya",
   "latitudeRest": "33.6090149851921",
   "longitudeRest": "-86.6876620678922",
   "rating": 4.5,
   "code": "AL"
 },
 {
   "FIELD1": 60,
   "nameRest": "Los Pedros Mexican Gril",
   "latitudeRest": "33.393721096614634",
   "longitudeRest": "-86.79753010406603",
   "rating": 3.5,
   "code": "AL"
 },
 {
   "FIELD1": 61,
   "nameRest": "Rojo",
   "latitudeRest": "33.5060159",
   "longitudeRest": "-86.781024",
   "rating": 4,
   "code": "AL"
 },
 {
   "FIELD1": 62,
   "nameRest": "Tostadas",
   "latitudeRest": "33.48103",
   "longitudeRest": "-86.79035",
   "rating": 4,
   "code": "AL"
 },
 {
   "FIELD1": 63,
   "nameRest": "Tacos El Paisano",
   "latitudeRest": "33.3247849",
   "longitudeRest": "-86.7060372",
   "rating": 4.5,
   "code": "AL"
 },
 {
   "FIELD1": 64,
   "nameRest": "Taqueria La Juanita",
   "latitudeRest": "33.54445873430333",
   "longitudeRest": "-86.55325521181027",
   "rating": 4.5,
   "code": "AL"
 },
 {
   "FIELD1": 65,
   "nameRest": "El Zunzun",
   "latitudeRest": "33.456676",
   "longitudeRest": "-86.730498",
   "rating": 3.5,
   "code": "AL"
 },
 {
   "FIELD1": 66,
   "nameRest": "Cantina Grill",
   "latitudeRest": "33.1912928",
   "longitudeRest": "-86.8255061",
   "rating": 4.5,
   "code": "AL"
 },
 {
   "FIELD1": 67,
   "nameRest": "Los Arcos",
   "latitudeRest": "33.5280050303641",
   "longitudeRest": "-86.7317867573508",
   "rating": 4,
   "code": "AL"
 },
 {
   "FIELD1": 68,
   "nameRest": "Sol Y Luna",
   "latitudeRest": "33.48694",
   "longitudeRest": "-86.773982",
   "rating": 4,
   "code": "AL"
 },
 {
   "FIELD1": 69,
   "nameRest": "Barrio Fiesta Mexican Grill",
   "latitudeRest": "33.23737820255251",
   "longitudeRest": "-86.8023823552306",
   "rating": 3.5,
   "code": "AL"
 },
 {
   "FIELD1": 70,
   "nameRest": "Tecate Bar & Grill",
   "latitudeRest": "33.44848",
   "longitudeRest": "-86.79121",
   "rating": 4,
   "code": "AL"
 },
 {
   "FIELD1": 71,
   "nameRest": "Las Trojas Cantina",
   "latitudeRest": "33.4219740441358",
   "longitudeRest": "-86.6822724141813",
   "rating": 3.5,
   "code": "AL"
 },
 {
   "FIELD1": 72,
   "nameRest": "El Taco Loco",
   "latitudeRest": "33.4755764901638",
   "longitudeRest": "-86.8159127980471",
   "rating": 4,
   "code": "AL"
 },
 {
   "FIELD1": 73,
   "nameRest": "Casa Fiesta Mexican Grill",
   "latitudeRest": "33.4200853",
   "longitudeRest": "-86.6964838",
   "rating": 4,
   "code": "AL"
 },
 {
   "FIELD1": 74,
   "nameRest": "Mexico Lindo",
   "latitudeRest": "33.4826087",
   "longitudeRest": "-86.7778588",
   "rating": 3.5,
   "code": "AL"
 },
 {
   "FIELD1": 75,
   "nameRest": "Cafe Castillo",
   "latitudeRest": "33.3692496889475",
   "longitudeRest": "-86.8129982896926",
   "rating": 5,
   "code": "AL"
 },
 {
   "FIELD1": 76,
   "nameRest": "Gordos",
   "latitudeRest": "33.4725979786838",
   "longitudeRest": "-86.8201358444837",
   "rating": 4.5,
   "code": "AL"
 },
 {
   "FIELD1": 77,
   "nameRest": "Los Rancheros Mexican Grill",
   "latitudeRest": "33.426362",
   "longitudeRest": "-86.772164",
   "rating": 4,
   "code": "AL"
 },
 {
   "FIELD1": 78,
   "nameRest": "Las Mesas Mexican Grill",
   "latitudeRest": "33.1449828125054",
   "longitudeRest": "-86.7502175324004",
   "rating": 4,
   "code": "AL"
 },
 {
   "FIELD1": 79,
   "nameRest": "Luna Latin Cuisine",
   "latitudeRest": "33.52513",
   "longitudeRest": "-86.77398",
   "rating": 4.5,
   "code": "AL"
 },
 {
   "FIELD1": 80,
   "nameRest": "Tacos La Tia Paisa",
   "latitudeRest": "33.47075",
   "longitudeRest": "-86.82614",
   "rating": 4,
   "code": "AL"
 },
 {
   "FIELD1": 81,
   "nameRest": "Unos Tacos",
   "latitudeRest": "33.51416",
   "longitudeRest": "-86.80798",
   "rating": 4,
   "code": "AL"
 },
 {
   "FIELD1": 82,
   "nameRest": "Pancho's Mexican Grill",
   "latitudeRest": "33.5289209013799",
   "longitudeRest": "-86.718313911259",
   "rating": 4,
   "code": "AL"
 },
 {
   "FIELD1": 83,
   "nameRest": "Iguana Grill",
   "latitudeRest": "33.383488",
   "longitudeRest": "-86.794835",
   "rating": 4,
   "code": "AL"
 },
 {
   "FIELD1": 84,
   "nameRest": "La Cabanita",
   "latitudeRest": "33.77540333",
   "longitudeRest": "-86.47094167",
   "rating": 4,
   "code": "AL"
 },
 {
   "FIELD1": 85,
   "nameRest": "LaPaz",
   "latitudeRest": "33.5031897",
   "longitudeRest": "-86.7570999",
   "rating": 3.5,
   "code": "AL"
 },
 {
   "FIELD1": 86,
   "nameRest": "Taco Mama - Summit",
   "latitudeRest": "33.451415",
   "longitudeRest": "-86.7287678",
   "rating": 4,
   "code": "AL"
 },
 {
   "FIELD1": 87,
   "nameRest": "Wasabi Juan's",
   "latitudeRest": "33.51211",
   "longitudeRest": "-86.79992",
   "rating": 4.5,
   "code": "AL"
 },
 {
   "FIELD1": 88,
   "nameRest": "Machete",
   "latitudeRest": "33.47036",
   "longitudeRest": "-86.82483",
   "rating": 4.5,
   "code": "AL"
 },
 {
   "FIELD1": 89,
   "nameRest": "Los Angeles Burrito",
   "latitudeRest": "33.214662",
   "longitudeRest": "-86.835508",
   "rating": 4.5,
   "code": "AL"
 },
 {
   "FIELD1": 90,
   "nameRest": "La Tortilla",
   "latitudeRest": "33.2457160949707",
   "longitudeRest": "-87.1378707885742",
   "rating": 4.5,
   "code": "AL"
 },
 {
   "FIELD1": 91,
   "nameRest": "Taco Morro Loco",
   "latitudeRest": "33.5222375859211",
   "longitudeRest": "-86.7726691231694",
   "rating": 4,
   "code": "AL"
 },
 {
   "FIELD1": 92,
   "nameRest": "Zapopan Mexican Restaurant",
   "latitudeRest": "33.156964",
   "longitudeRest": "-86.753078",
   "rating": 3.5,
   "code": "AL"
 },
 {
   "FIELD1": 93,
   "nameRest": "La Libertad",
   "latitudeRest": "33.3052897453308",
   "longitudeRest": "-86.806364133954",
   "rating": 4.5,
   "code": "AL"
 },
 {
   "FIELD1": 94,
   "nameRest": "Taqueria Juarez",
   "latitudeRest": "33.4095144",
   "longitudeRest": "-86.80631269999999",
   "rating": 5,
   "code": "AL"
 },
 {
   "FIELD1": 95,
   "nameRest": "El Patron",
   "latitudeRest": "33.64109",
   "longitudeRest": "-86.622915",
   "rating": 4,
   "code": "AL"
 },
 {
   "FIELD1": 96,
   "nameRest": "Don Pepe",
   "latitudeRest": "33.410858645704",
   "longitudeRest": "-86.666613146639",
   "rating": 4,
   "code": "AL"
 },
 {
   "FIELD1": 97,
   "nameRest": "LEON La Taberna Mexican Tavern",
   "latitudeRest": "33.479529",
   "longitudeRest": "-86.702262",
   "rating": 3.5,
   "code": "AL"
 },
 {
   "FIELD1": 98,
   "nameRest": "Maravilla’s Mexican Grill",
   "latitudeRest": "33.58237967",
   "longitudeRest": "-86.92064933",
   "rating": 5,
   "code": "AL"
 },
 {
   "FIELD1": 99,
   "nameRest": "Los Valedores",
   "latitudeRest": "33.465933",
   "longitudeRest": "-86.820821",
   "rating": 4.5,
   "code": "AL"
 },
 {
   "FIELD1": 100,
   "nameRest": "Taqueria El Palenque",
   "latitudeRest": "34.7595502051828",
   "longitudeRest": "-92.3795964367079",
   "rating": 4.5,
   "code": "AR"
 },
 {
   "FIELD1": 101,
   "nameRest": "La Tapatia Taqueria & Birria",
   "latitudeRest": "34.6710973360345",
   "longitudeRest": "-92.41872190941",
   "rating": 4.5,
   "code": "AR"
 },
 {
   "FIELD1": 102,
   "nameRest": "Heights Taco & Tamale",
   "latitudeRest": "34.77",
   "longitudeRest": "-92.33853",
   "rating": 4,
   "code": "AR"
 },
 {
   "FIELD1": 103,
   "nameRest": "Local Lime",
   "latitudeRest": "34.7679618728401",
   "longitudeRest": "-92.4594895436554",
   "rating": 4,
   "code": "AR"
 },
 {
   "FIELD1": 104,
   "nameRest": "Taqueria Azteca Original Mexican Food",
   "latitudeRest": "34.8322148778408",
   "longitudeRest": "-92.3924090713263",
   "rating": 5,
   "code": "AR"
 },
 {
   "FIELD1": 105,
   "nameRest": "Wicked Taco Factory",
   "latitudeRest": "34.74707",
   "longitudeRest": "-92.27268",
   "rating": 4.5,
   "code": "AR"
 },
 {
   "FIELD1": 106,
   "nameRest": "Taqueria Catrina",
   "latitudeRest": "34.88645",
   "longitudeRest": "-92.37478",
   "rating": 4.5,
   "code": "AR"
 },
 {
   "FIELD1": 107,
   "nameRest": "El Torito",
   "latitudeRest": "34.75174",
   "longitudeRest": "-92.40652",
   "rating": 4.5,
   "code": "AR"
 },
 {
   "FIELD1": 108,
   "nameRest": "La Hacienda Mexican Restaurant",
   "latitudeRest": "34.7608",
   "longitudeRest": "-92.3091199",
   "rating": 4,
   "code": "AR"
 },
 {
   "FIELD1": 109,
   "nameRest": "Taqueria Gonzalez",
   "latitudeRest": "35.066567332283",
   "longitudeRest": "-92.4209497304289",
   "rating": 4.5,
   "code": "AR"
 },
 {
   "FIELD1": 110,
   "nameRest": "The Fold: Botanas & Bar",
   "latitudeRest": "34.764843",
   "longitudeRest": "-92.311427",
   "rating": 4,
   "code": "AR"
 },
 {
   "FIELD1": 111,
   "nameRest": "Cantina Laredo",
   "latitudeRest": "34.7531236433635",
   "longitudeRest": "-92.3398067333551",
   "rating": 3.5,
   "code": "AR"
 },
 {
   "FIELD1": 112,
   "nameRest": "Three Amigos Restaurante",
   "latitudeRest": "34.774242401123",
   "longitudeRest": "-92.3608932495117",
   "rating": 3.5,
   "code": "AR"
 },
 {
   "FIELD1": 113,
   "nameRest": "Taqueria Guadalajara",
   "latitudeRest": "34.791344",
   "longitudeRest": "-92.275699",
   "rating": 4,
   "code": "AR"
 },
 {
   "FIELD1": 114,
   "nameRest": "Mockingbird Bar & Tacos",
   "latitudeRest": "34.7366251520099",
   "longitudeRest": "-92.272625043386",
   "rating": 4,
   "code": "AR"
 },
 {
   "FIELD1": 115,
   "nameRest": "La casa de mi abuelita Mawmaw's House",
   "latitudeRest": "34.439726",
   "longitudeRest": "-92.193638",
   "rating": 5,
   "code": "AR"
 },
 {
   "FIELD1": 116,
   "nameRest": "Santo Coyote Mexican Food Tequila Bar",
   "latitudeRest": "34.79662",
   "longitudeRest": "-92.23583",
   "rating": 4,
   "code": "AR"
 },
 {
   "FIELD1": 117,
   "nameRest": "Diablos",
   "latitudeRest": "34.748079",
   "longitudeRest": "-92.2676042592593",
   "rating": 3,
   "code": "AR"
 },
 {
   "FIELD1": 118,
   "nameRest": "Cantina Cinco De Mayo",
   "latitudeRest": "34.7696176290017",
   "longitudeRest": "-92.4557370423695",
   "rating": 4,
   "code": "AR"
 },
 {
   "FIELD1": 119,
   "nameRest": "Mi Casita Texmex Restaurant",
   "latitudeRest": "34.4408493041992",
   "longitudeRest": "-92.1934967041016",
   "rating": 4.5,
   "code": "AR"
 },
 {
   "FIELD1": 120,
   "nameRest": "Del Campo A La Cuidad",
   "latitudeRest": "34.6907043457031",
   "longitudeRest": "-92.3479232788086",
   "rating": 4.5,
   "code": "AR"
 },
 {
   "FIELD1": 121,
   "nameRest": "La Casa Real",
   "latitudeRest": "34.7891562023",
   "longitudeRest": "-92.26028714329",
   "rating": 4.5,
   "code": "AR"
 },
 {
   "FIELD1": 122,
   "nameRest": "Señor Tequila",
   "latitudeRest": "34.7452996532038",
   "longitudeRest": "-92.4068078545223",
   "rating": 4,
   "code": "AR"
 },
 {
   "FIELD1": 123,
   "nameRest": "Buenos Aires Grill & Cafe",
   "latitudeRest": "34.7474599",
   "longitudeRest": "-92.2636",
   "rating": 4.5,
   "code": "AR"
 },
 {
   "FIELD1": 124,
   "nameRest": "La Pasadita Mexican Restaurant",
   "latitudeRest": "34.77064",
   "longitudeRest": "-92.39735",
   "rating": 4.5,
   "code": "AR"
 },
 {
   "FIELD1": 125,
   "nameRest": "Cotija's Mexican Grill",
   "latitudeRest": "34.7451471537352",
   "longitudeRest": "-92.2721897810698",
   "rating": 4.5,
   "code": "AR"
 },
 {
   "FIELD1": 126,
   "nameRest": "Extreme Tacos and tamales ",
   "latitudeRest": "34.53522",
   "longitudeRest": "-92.407175",
   "rating": 5,
   "code": "AR"
 },
 {
   "FIELD1": 127,
   "nameRest": "Baja Grill",
   "latitudeRest": "34.770058",
   "longitudeRest": "-92.340395",
   "rating": 4,
   "code": "AR"
 },
 {
   "FIELD1": 128,
   "nameRest": "El Porton Mexican Restaurant",
   "latitudeRest": "34.7523755",
   "longitudeRest": "-92.4090405",
   "rating": 3.5,
   "code": "AR"
 },
 {
   "FIELD1": 129,
   "nameRest": "Riviera Maya Mexican Restaurant",
   "latitudeRest": "34.7444",
   "longitudeRest": "-92.33395",
   "rating": 3.5,
   "code": "AR"
 },
 {
   "FIELD1": 130,
   "nameRest": "Tortas Mexico",
   "latitudeRest": "34.78944",
   "longitudeRest": "-92.27708",
   "rating": 4.5,
   "code": "AR"
 },
 {
   "FIELD1": 131,
   "nameRest": "Mi Ranchito",
   "latitudeRest": "34.9808579358269",
   "longitudeRest": "-92.0700123767791",
   "rating": 3.5,
   "code": "AR"
 },
 {
   "FIELD1": 132,
   "nameRest": "El Mezcal",
   "latitudeRest": "34.75737",
   "longitudeRest": "-92.32385",
   "rating": 3,
   "code": "AR"
 },
 {
   "FIELD1": 133,
   "nameRest": "Chuy's",
   "latitudeRest": "34.7572521234838",
   "longitudeRest": "-92.446276218304",
   "rating": 3.5,
   "code": "AR"
 },
 {
   "FIELD1": 134,
   "nameRest": "Chuy's",
   "latitudeRest": "34.80083",
   "longitudeRest": "-92.21613",
   "rating": 4,
   "code": "AR"
 },
 {
   "FIELD1": 135,
   "nameRest": "La Frontera Mexican Grill",
   "latitudeRest": "34.669663",
   "longitudeRest": "-92.332657",
   "rating": 4.5,
   "code": "AR"
 },
 {
   "FIELD1": 136,
   "nameRest": "Taqueria Amigo Mexican Restaurant",
   "latitudeRest": "34.8663941626817",
   "longitudeRest": "-92.1305165645417",
   "rating": 4.5,
   "code": "AR"
 },
 {
   "FIELD1": 137,
   "nameRest": "El Alamo Mexican Grill",
   "latitudeRest": "34.6730300392371",
   "longitudeRest": "-92.3446623980999",
   "rating": 5,
   "code": "AR"
 },
 {
   "FIELD1": 138,
   "nameRest": "Rosalinda",
   "latitudeRest": "34.7875951",
   "longitudeRest": "-92.2758938",
   "rating": 4.5,
   "code": "AR"
 },
 {
   "FIELD1": 139,
   "nameRest": "Mexico Chiquito",
   "latitudeRest": "34.7543",
   "longitudeRest": "-92.40043",
   "rating": 2.5,
   "code": "AR"
 },
 {
   "FIELD1": 140,
   "nameRest": "Rock City Taco & Margarita Bar",
   "latitudeRest": "34.74545341992587",
   "longitudeRest": "-92.2663749",
   "rating": 2.5,
   "code": "AR"
 },
 {
   "FIELD1": 141,
   "nameRest": "Las Palmas Mexican Restaurant",
   "latitudeRest": "34.7892749",
   "longitudeRest": "-92.2218809",
   "rating": 4,
   "code": "AR"
 },
 {
   "FIELD1": 142,
   "nameRest": "El Sur Street Food",
   "latitudeRest": "34.7379951477051",
   "longitudeRest": "-92.2633056640625",
   "rating": 5,
   "code": "AR"
 },
 {
   "FIELD1": 143,
   "nameRest": "Casa Mexicana",
   "latitudeRest": "34.828772",
   "longitudeRest": "-92.391209",
   "rating": 3,
   "code": "AR"
 },
 {
   "FIELD1": 144,
   "nameRest": "Tacos 4 Life",
   "latitudeRest": "34.7299",
   "longitudeRest": "-92.395584",
   "rating": 4,
   "code": "AR"
 },
 {
   "FIELD1": 145,
   "nameRest": "Chepe’s Mexican Grill",
   "latitudeRest": "34.57962",
   "longitudeRest": "-92.58226",
   "rating": 4,
   "code": "AR"
 },
 {
   "FIELD1": 146,
   "nameRest": "Taco Mexicano",
   "latitudeRest": "34.81797",
   "longitudeRest": "-92.32892",
   "rating": 5,
   "code": "AR"
 },
 {
   "FIELD1": 147,
   "nameRest": "La culpable Taqueria",
   "latitudeRest": "34.64198",
   "longitudeRest": "-92.44004",
   "rating": 4.5,
   "code": "AR"
 },
 {
   "FIELD1": 148,
   "nameRest": "Santo Coyote Restaurant",
   "latitudeRest": "34.795601",
   "longitudeRest": "-92.403854",
   "rating": 3.5,
   "code": "AR"
 },
 {
   "FIELD1": 149,
   "nameRest": "Mr Pancho",
   "latitudeRest": "34.8550849664942",
   "longitudeRest": "-92.4034708156567",
   "rating": 3.5,
   "code": "AR"
 },
 {
   "FIELD1": 150,
   "nameRest": "Cocina Madrigal",
   "latitudeRest": "33.4087985461415",
   "longitudeRest": "-112.047297751521",
   "rating": 5,
   "code": "AZ"
 },
 {
   "FIELD1": 151,
   "nameRest": "Presidio Cocina Mexicana",
   "latitudeRest": "33.4801951",
   "longitudeRest": "-112.0813133",
   "rating": 4.5,
   "code": "AZ"
 },
 {
   "FIELD1": 152,
   "nameRest": "Barrio Café",
   "latitudeRest": "33.47903",
   "longitudeRest": "-112.04789",
   "rating": 4,
   "code": "AZ"
 },
 {
   "FIELD1": 153,
   "nameRest": "Los Reyes De La Torta",
   "latitudeRest": "33.5708244",
   "longitudeRest": "-112.0656524",
   "rating": 4.5,
   "code": "AZ"
 },
 {
   "FIELD1": 154,
   "nameRest": "La Santisima Gourmet Taco Shop",
   "latitudeRest": "33.49554",
   "longitudeRest": "-112.04717",
   "rating": 4,
   "code": "AZ"
 },
 {
   "FIELD1": 155,
   "nameRest": "Centrico",
   "latitudeRest": "33.4504069086437",
   "longitudeRest": "-112.073926125802",
   "rating": 4.5,
   "code": "AZ"
 },
 {
   "FIELD1": 156,
   "nameRest": "Chico Malo",
   "latitudeRest": "33.4478910339496",
   "longitudeRest": "-112.073899284687",
   "rating": 4,
   "code": "AZ"
 },
 {
   "FIELD1": 157,
   "nameRest": "Blanco Cocina Cantina - Phoenix",
   "latitudeRest": "33.448107",
   "longitudeRest": "-112.071378",
   "rating": 4.5,
   "code": "AZ"
 },
 {
   "FIELD1": 158,
   "nameRest": "Diego Pops",
   "latitudeRest": "33.499382019043",
   "longitudeRest": "-111.926490783691",
   "rating": 4,
   "code": "AZ"
 },
 {
   "FIELD1": 159,
   "nameRest": "Mariscos Playa Hermosa",
   "latitudeRest": "33.457642351835446",
   "longitudeRest": "-112.0472939",
   "rating": 4.5,
   "code": "AZ"
 },
 {
   "FIELD1": 160,
   "nameRest": "The Mission",
   "latitudeRest": "33.492287",
   "longitudeRest": "-111.924273",
   "rating": 4,
   "code": "AZ"
 },
 {
   "FIELD1": 161,
   "nameRest": "Maria's Frybread & Mexican Food",
   "latitudeRest": "33.4797876514924",
   "longitudeRest": "-111.994970217347",
   "rating": 4.5,
   "code": "AZ"
 },
 {
   "FIELD1": 162,
   "nameRest": "Fuego at The Clarendon",
   "latitudeRest": "33.491105",
   "longitudeRest": "-112.0795409",
   "rating": 4.5,
   "code": "AZ"
 },
 {
   "FIELD1": 163,
   "nameRest": "Naughty Tacos",
   "latitudeRest": "33.46602",
   "longitudeRest": "-111.98937",
   "rating": 4.5,
   "code": "AZ"
 },
 {
   "FIELD1": 164,
   "nameRest": "Ladera Taverna y Cocina",
   "latitudeRest": "33.5638465881348",
   "longitudeRest": "-112.073532104492",
   "rating": 4.5,
   "code": "AZ"
 },
 {
   "FIELD1": 165,
   "nameRest": "Just Tacos and More",
   "latitudeRest": "33.48109349",
   "longitudeRest": "-112.0132813",
   "rating": 5,
   "code": "AZ"
 },
 {
   "FIELD1": 166,
   "nameRest": "Comedor Guadalajara",
   "latitudeRest": "33.429424",
   "longitudeRest": "-112.073929",
   "rating": 4,
   "code": "AZ"
 },
 {
   "FIELD1": 167,
   "nameRest": "PHX Burrito House",
   "latitudeRest": "33.4963856006833",
   "longitudeRest": "-112.083983185613",
   "rating": 4.5,
   "code": "AZ"
 },
 {
   "FIELD1": 168,
   "nameRest": "Taco Chelo",
   "latitudeRest": "33.4585151",
   "longitudeRest": "-112.067262",
   "rating": 4,
   "code": "AZ"
 },
 {
   "FIELD1": 169,
   "nameRest": "Casa Corazon Restaurant",
   "latitudeRest": "33.47692",
   "longitudeRest": "-112.04703",
   "rating": 4.5,
   "code": "AZ"
 },
 {
   "FIELD1": 170,
   "nameRest": "Joyride Taco House",
   "latitudeRest": "33.51315",
   "longitudeRest": "-112.07414",
   "rating": 4,
   "code": "AZ"
 },
 {
   "FIELD1": 171,
   "nameRest": "Mi Pueblo Mexican Food",
   "latitudeRest": "33.655902",
   "longitudeRest": "-112.064206",
   "rating": 4.5,
   "code": "AZ"
 },
 {
   "FIELD1": 172,
   "nameRest": "Taco Guild",
   "latitudeRest": "33.487639",
   "longitudeRest": "-112.065664676935",
   "rating": 4,
   "code": "AZ"
 },
 {
   "FIELD1": 173,
   "nameRest": "Chantico",
   "latitudeRest": "33.50898436",
   "longitudeRest": "-112.05865716",
   "rating": 4,
   "code": "AZ"
 },
 {
   "FIELD1": 174,
   "nameRest": "Mi Lindo Michoacan The Mexican Corral",
   "latitudeRest": "33.49593",
   "longitudeRest": "-112.22133",
   "rating": 5,
   "code": "AZ"
 },
 {
   "FIELD1": 175,
   "nameRest": "Kiss Pollos Estilo Sinaloa",
   "latitudeRest": "33.4361690200919",
   "longitudeRest": "-112.077588255791",
   "rating": 5,
   "code": "AZ"
 },
 {
   "FIELD1": 176,
   "nameRest": "Mi Patio Mexican Food",
   "latitudeRest": "33.4874748",
   "longitudeRest": "-112.0830342",
   "rating": 4,
   "code": "AZ"
 },
 {
   "FIELD1": 177,
   "nameRest": "Barrio Queen",
   "latitudeRest": "33.677070116240074",
   "longitudeRest": "-111.97486994090313",
   "rating": 4,
   "code": "AZ"
 },
 {
   "FIELD1": 178,
   "nameRest": "Toca Madera Scottsdale",
   "latitudeRest": "33.5049772",
   "longitudeRest": "-111.931125",
   "rating": 4,
   "code": "AZ"
 },
 {
   "FIELD1": 179,
   "nameRest": "Cien Agaves Tacos & Tequila - Old Town Scottsdale",
   "latitudeRest": "33.494217",
   "longitudeRest": "-111.925339",
   "rating": 4,
   "code": "AZ"
 },
 {
   "FIELD1": 180,
   "nameRest": "Birrieria Tijuana",
   "latitudeRest": "33.62741728658402",
   "longitudeRest": "-112.01234725527881",
   "rating": 4.5,
   "code": "AZ"
 },
 {
   "FIELD1": 181,
   "nameRest": "SOL Mexican Cocina",
   "latitudeRest": "33.625514",
   "longitudeRest": "-111.924236",
   "rating": 4,
   "code": "AZ"
 },
 {
   "FIELD1": 182,
   "nameRest": "Dos Gordos",
   "latitudeRest": "33.378917",
   "longitudeRest": "-112.13542817",
   "rating": 4.5,
   "code": "AZ"
 },
 {
   "FIELD1": 183,
   "nameRest": "Los Taquitos",
   "latitudeRest": "33.34808078511072",
   "longitudeRest": "-111.98238902581164",
   "rating": 4,
   "code": "AZ"
 },
 {
   "FIELD1": 184,
   "nameRest": "Sr Ozzy's Tacos Y Mariscos",
   "latitudeRest": "33.391779824196",
   "longitudeRest": "-112.095735407612",
   "rating": 4.5,
   "code": "AZ"
 },
 {
   "FIELD1": 185,
   "nameRest": "Irma's Kitchen",
   "latitudeRest": "33.45889",
   "longitudeRest": "-112.094055",
   "rating": 4.5,
   "code": "AZ"
 },
 {
   "FIELD1": 186,
   "nameRest": "Dick's Hideaway",
   "latitudeRest": "33.5241701058918",
   "longitudeRest": "-112.047840593918",
   "rating": 4.5,
   "code": "AZ"
 },
 {
   "FIELD1": 187,
   "nameRest": "Tacos Chiwas",
   "latitudeRest": "33.494937",
   "longitudeRest": "-112.059423",
   "rating": 4.5,
   "code": "AZ"
 },
 {
   "FIELD1": 188,
   "nameRest": "The Original Carolina's Mexican Food",
   "latitudeRest": "33.431499",
   "longitudeRest": "-112.056034",
   "rating": 4,
   "code": "AZ"
 },
 {
   "FIELD1": 189,
   "nameRest": "Testal",
   "latitudeRest": "33.457261",
   "longitudeRest": "-112.090136",
   "rating": 5,
   "code": "AZ"
 },
 {
   "FIELD1": 190,
   "nameRest": "Maskadores Taco Shop",
   "latitudeRest": "33.407829",
   "longitudeRest": "-111.950966",
   "rating": 4.5,
   "code": "AZ"
 },
 {
   "FIELD1": 191,
   "nameRest": "Los Dos Molinos",
   "latitudeRest": "33.3671700568237",
   "longitudeRest": "-112.073720529044",
   "rating": 3.5,
   "code": "AZ"
 },
 {
   "FIELD1": 192,
   "nameRest": "Tacos Calafia - Phoenix",
   "latitudeRest": "33.45733",
   "longitudeRest": "-112.06482",
   "rating": 4.5,
   "code": "AZ"
 },
 {
   "FIELD1": 193,
   "nameRest": "Taco Boy's",
   "latitudeRest": "33.458928",
   "longitudeRest": "-112.065571",
   "rating": 4.5,
   "code": "AZ"
 },
 {
   "FIELD1": 194,
   "nameRest": "Asadero Norte De Sonora",
   "latitudeRest": "33.4501599",
   "longitudeRest": "-112.04793",
   "rating": 4.5,
   "code": "AZ"
 },
 {
   "FIELD1": 195,
   "nameRest": "Sofrita",
   "latitudeRest": "33.6040137",
   "longitudeRest": "-111.7166851",
   "rating": 4,
   "code": "AZ"
 },
 {
   "FIELD1": 196,
   "nameRest": "Rito's Mexican Food- Phoenix",
   "latitudeRest": "33.4579361",
   "longitudeRest": "-112.0520629",
   "rating": 4.5,
   "code": "AZ"
 },
 {
   "FIELD1": 197,
   "nameRest": "Chino Bandido",
   "latitudeRest": "33.6403102688101",
   "longitudeRest": "-112.07927515992183",
   "rating": 4,
   "code": "AZ"
 },
 {
   "FIELD1": 198,
   "nameRest": "CRUjiente Tacos",
   "latitudeRest": "33.508978",
   "longitudeRest": "-111.995762",
   "rating": 4.5,
   "code": "AZ"
 },
 {
   "FIELD1": 199,
   "nameRest": "The Arrogant Butcher",
   "latitudeRest": "33.4473917315183",
   "longitudeRest": "-112.072831046558",
   "rating": 4,
   "code": "AZ"
 },
 {
   "FIELD1": 200,
   "nameRest": "Casa Velasco Mexican Restaurant",
   "latitudeRest": "37.32073",
   "longitudeRest": "-119.5586",
   "rating": 4.5,
   "code": "CA"
 },
 {
   "FIELD1": 201,
   "nameRest": "Plazuelas Mexican Restaurant & Taqueria",
   "latitudeRest": "37.331555",
   "longitudeRest": "-119.6563089",
   "rating": 4,
   "code": "CA"
 },
 {
   "FIELD1": 202,
   "nameRest": "El Cid Mexican Cuisine",
   "latitudeRest": "37.358658",
   "longitudeRest": "-119.644107",
   "rating": 3.5,
   "code": "CA"
 },
 {
   "FIELD1": 203,
   "nameRest": "La Cabana",
   "latitudeRest": "37.2229944",
   "longitudeRest": "-119.5099837",
   "rating": 4,
   "code": "CA"
 },
 {
   "FIELD1": 204,
   "nameRest": "Don Fernando's",
   "latitudeRest": "37.03788451675827",
   "longitudeRest": "-119.51335524110443",
   "rating": 4.5,
   "code": "CA"
 },
 {
   "FIELD1": 205,
   "nameRest": "Nayos mecican restaurant",
   "latitudeRest": "37.483492",
   "longitudeRest": "-119.963207",
   "rating": 4.5,
   "code": "CA"
 },
 {
   "FIELD1": 206,
   "nameRest": "El Charro Taqueria",
   "latitudeRest": "37.639331",
   "longitudeRest": "-118.967477",
   "rating": 4.5,
   "code": "CA"
 },
 {
   "FIELD1": 207,
   "nameRest": "Dulce Sabor",
   "latitudeRest": "37.3417723034878",
   "longitudeRest": "-119.642441309989",
   "rating": 4.5,
   "code": "CA"
 },
 {
   "FIELD1": 208,
   "nameRest": "Roberto's Cafe",
   "latitudeRest": "37.6419677734375",
   "longitudeRest": "-118.965881347656",
   "rating": 4,
   "code": "CA"
 },
 {
   "FIELD1": 209,
   "nameRest": "Latin Market Taqueria",
   "latitudeRest": "37.64541326089798",
   "longitudeRest": "-118.96744861626956",
   "rating": 4.5,
   "code": "CA"
 },
 {
   "FIELD1": 210,
   "nameRest": "The Loco Frijole",
   "latitudeRest": "37.6485033247253",
   "longitudeRest": "-118.977794873757",
   "rating": 4,
   "code": "CA"
 },
 {
   "FIELD1": 211,
   "nameRest": "Salsa's Taqueria",
   "latitudeRest": "37.637538",
   "longitudeRest": "-118.966934",
   "rating": 4,
   "code": "CA"
 },
 {
   "FIELD1": 212,
   "nameRest": "Puerto Vallarta",
   "latitudeRest": "37.64748",
   "longitudeRest": "-118.97119460006164",
   "rating": 4,
   "code": "CA"
 },
 {
   "FIELD1": 213,
   "nameRest": "Alfonso's Hideaway Mexican Restaurant",
   "latitudeRest": "37.2628471",
   "longitudeRest": "-119.6971433",
   "rating": 3.5,
   "code": "CA"
 },
 {
   "FIELD1": 214,
   "nameRest": "Velasco's Mexican Restaurant",
   "latitudeRest": "37.037918",
   "longitudeRest": "-119.516326",
   "rating": 4,
   "code": "CA"
 },
 {
   "FIELD1": 215,
   "nameRest": "Mariscos Colima",
   "latitudeRest": "37.33291",
   "longitudeRest": "-119.65257",
   "rating": 3.5,
   "code": "CA"
 },
 {
   "FIELD1": 216,
   "nameRest": "Castillo's",
   "latitudeRest": "37.4844099",
   "longitudeRest": "-119.96424",
   "rating": 3.5,
   "code": "CA"
 },
 {
   "FIELD1": 217,
   "nameRest": "Don Rubens Restaurant",
   "latitudeRest": "37.489",
   "longitudeRest": "-119.97009",
   "rating": 3.5,
   "code": "CA"
 },
 {
   "FIELD1": 218,
   "nameRest": "Gomez's Mexican Restaurant & Cantina",
   "latitudeRest": "37.6505508422852",
   "longitudeRest": "-118.985801696777",
   "rating": 3,
   "code": "CA"
 },
 {
   "FIELD1": 219,
   "nameRest": "Picayune Rancheria Indian tacos",
   "latitudeRest": "37.214007",
   "longitudeRest": "-119.685251",
   "rating": 5,
   "code": "CA"
 },
 {
   "FIELD1": 220,
   "nameRest": "Casa de Fuego",
   "latitudeRest": "37.211431",
   "longitudeRest": "-119.699178",
   "rating": 3.5,
   "code": "CA"
 },
 {
   "FIELD1": 221,
   "nameRest": "Tacos Sonora",
   "latitudeRest": "37.4890280744738",
   "longitudeRest": "-119.971674058861",
   "rating": 4,
   "code": "CA"
 },
 {
   "FIELD1": 222,
   "nameRest": "Shaver Lake Gas & Deli",
   "latitudeRest": "37.1070881853525",
   "longitudeRest": "-119.318737974761",
   "rating": 3,
   "code": "CA"
 },
 {
   "FIELD1": 223,
   "nameRest": "Oakhurst Grill and Whiskey 41 Lounge",
   "latitudeRest": "37.3360280886114",
   "longitudeRest": "-119.646133705974",
   "rating": 4,
   "code": "CA"
 },
 {
   "FIELD1": 224,
   "nameRest": "Ducey's on the Lake",
   "latitudeRest": "37.3189103",
   "longitudeRest": "-119.5570908",
   "rating": 3.5,
   "code": "CA"
 },
 {
   "FIELD1": 225,
   "nameRest": "Wild Fig Kitchen",
   "latitudeRest": "37.2622980132899",
   "longitudeRest": "-119.700374975394",
   "rating": 4.5,
   "code": "CA"
 },
 {
   "FIELD1": 226,
   "nameRest": "La Estrella",
   "latitudeRest": "36.7257537841797",
   "longitudeRest": "-120.059997558594",
   "rating": 4.5,
   "code": "CA"
 },
 {
   "FIELD1": 227,
   "nameRest": "Carrillo's Mexican Food",
   "latitudeRest": "36.8234714433902",
   "longitudeRest": "-119.712107665837",
   "rating": 4.5,
   "code": "CA"
 },
 {
   "FIELD1": 228,
   "nameRest": "Cocula’s Taqueria",
   "latitudeRest": "36.631222",
   "longitudeRest": "-119.678436",
   "rating": 4.5,
   "code": "CA"
 },
 {
   "FIELD1": 229,
   "nameRest": "La Haciendita",
   "latitudeRest": "36.6910860610546",
   "longitudeRest": "-119.555002092388",
   "rating": 3.5,
   "code": "CA"
 },
 {
   "FIELD1": 230,
   "nameRest": "Las Cabanas Taqueria",
   "latitudeRest": "36.7069349",
   "longitudeRest": "-119.5750633",
   "rating": 4.5,
   "code": "CA"
 },
 {
   "FIELD1": 231,
   "nameRest": "Taqueria Maranatha",
   "latitudeRest": "36.9551",
   "longitudeRest": "-120.05475",
   "rating": 4,
   "code": "CA"
 },
 {
   "FIELD1": 232,
   "nameRest": "Cecilia's Restaurant",
   "latitudeRest": "36.7347951",
   "longitudeRest": "-120.0612995",
   "rating": 4,
   "code": "CA"
 },
 {
   "FIELD1": 233,
   "nameRest": "The Oasis",
   "latitudeRest": "37.4328956604004",
   "longitudeRest": "-120.098487854004",
   "rating": 4.5,
   "code": "CA"
 },
 {
   "FIELD1": 234,
   "nameRest": "Halaly Tacos",
   "latitudeRest": "36.83133",
   "longitudeRest": "-119.78978",
   "rating": 4,
   "code": "CA"
 },
 {
   "FIELD1": 235,
   "nameRest": "Hideout Saloon",
   "latitudeRest": "37.4848079",
   "longitudeRest": "-119.9654933",
   "rating": 4.5,
   "code": "CA"
 },
 {
   "FIELD1": 236,
   "nameRest": "Ohanas395",
   "latitudeRest": "37.77787",
   "longitudeRest": "-119.07577",
   "rating": 4.5,
   "code": "CA"
 },
 {
   "FIELD1": 237,
   "nameRest": "Sal's Tacos and Catering",
   "latitudeRest": "37.48412",
   "longitudeRest": "-119.96467",
   "rating": 4.5,
   "code": "CA"
 },
 {
   "FIELD1": 238,
   "nameRest": "Taqueria Morales",
   "latitudeRest": "36.709408",
   "longitudeRest": "-119.556091",
   "rating": 3.5,
   "code": "CA"
 },
 {
   "FIELD1": 239,
   "nameRest": "Cabanas Restaurant",
   "latitudeRest": "36.6247765722778",
   "longitudeRest": "-119.31804798971",
   "rating": 4,
   "code": "CA"
 },
 {
   "FIELD1": 240,
   "nameRest": "Monterrey Tortilleria",
   "latitudeRest": "36.62482",
   "longitudeRest": "-119.3088",
   "rating": 3,
   "code": "CA"
 },
 {
   "FIELD1": 241,
   "nameRest": "La Mexicana Taco Truck",
   "latitudeRest": "36.73422",
   "longitudeRest": "-119.50257",
   "rating": 4.5,
   "code": "CA"
 },
 {
   "FIELD1": 242,
   "nameRest": "Hacienda Tequila",
   "latitudeRest": "36.81374",
   "longitudeRest": "-119.700853",
   "rating": 4,
   "code": "CA"
 },
 {
   "FIELD1": 243,
   "nameRest": "Silver Lake Resort Cafe",
   "latitudeRest": "37.7813702",
   "longitudeRest": "-119.1296283",
   "rating": 4.5,
   "code": "CA"
 },
 {
   "FIELD1": 244,
   "nameRest": "Mi Linda Tierra Market",
   "latitudeRest": "36.703399",
   "longitudeRest": "-119.550605",
   "rating": 5,
   "code": "CA"
 },
 {
   "FIELD1": 245,
   "nameRest": "Taqueria Don Pepe",
   "latitudeRest": "36.8008235",
   "longitudeRest": "-119.789907053966",
   "rating": 4.5,
   "code": "CA"
 },
 {
   "FIELD1": 246,
   "nameRest": "Denny's",
   "latitudeRest": "37.3375936699586",
   "longitudeRest": "-119.645203649998",
   "rating": 2,
   "code": "CA"
 },
 {
   "FIELD1": 247,
   "nameRest": "Bob's Blue Sky Cafe",
   "latitudeRest": "37.106465",
   "longitudeRest": "-119.318577",
   "rating": 3.5,
   "code": "CA"
 },
 {
   "FIELD1": 248,
   "nameRest": "Mi Ranchito Tacos y Mariscos",
   "latitudeRest": "36.70355",
   "longitudeRest": "-119.55592",
   "rating": 4,
   "code": "CA"
 },
 {
   "FIELD1": 249,
   "nameRest": "The Warming Hut",
   "latitudeRest": "37.6411",
   "longitudeRest": "-118.96619",
   "rating": 4.5,
   "code": "CA"
 },
 {
   "FIELD1": 250,
   "nameRest": "La Loma | Denver",
   "latitudeRest": "39.74493",
   "longitudeRest": "-104.98781",
   "rating": 4,
   "code": "CO"
 },
 {
   "FIELD1": 251,
   "nameRest": "Los Chingones Denver",
   "latitudeRest": "39.7574379",
   "longitudeRest": "-104.9868016",
   "rating": 4,
   "code": "CO"
 },
 {
   "FIELD1": 252,
   "nameRest": "Las Margs",
   "latitudeRest": "39.74051",
   "longitudeRest": "-104.97249",
   "rating": 4,
   "code": "CO"
 },
 {
   "FIELD1": 253,
   "nameRest": "Mister Oso",
   "latitudeRest": "39.76424",
   "longitudeRest": "-104.97848",
   "rating": 4.5,
   "code": "CO"
 },
 {
   "FIELD1": 254,
   "nameRest": "El Gordo Taqueria",
   "latitudeRest": "39.827",
   "longitudeRest": "-105.00728",
   "rating": 5,
   "code": "CO"
 },
 {
   "FIELD1": 255,
   "nameRest": "La Calle Taqueria Y Carnitas",
   "latitudeRest": "39.7114611",
   "longitudeRest": "-105.0102102",
   "rating": 4.5,
   "code": "CO"
 },
 {
   "FIELD1": 256,
   "nameRest": "Pupusas Y Tacos Los Reyes",
   "latitudeRest": "39.654075",
   "longitudeRest": "-104.870029",
   "rating": 4.5,
   "code": "CO"
 },
 {
   "FIELD1": 257,
   "nameRest": "Taqueria La Familia",
   "latitudeRest": "39.761887",
   "longitudeRest": "-105.020065",
   "rating": 4.5,
   "code": "CO"
 },
 {
   "FIELD1": 258,
   "nameRest": "SOL Mexican Cocina",
   "latitudeRest": "39.71978",
   "longitudeRest": "-104.95672",
   "rating": 4,
   "code": "CO"
 },
 {
   "FIELD1": 259,
   "nameRest": "La Diabla Pozole Y Mezcal",
   "latitudeRest": "39.75548",
   "longitudeRest": "-104.9898",
   "rating": 4.5,
   "code": "CO"
 },
 {
   "FIELD1": 260,
   "nameRest": "Los Cuates Mexican Restaurant",
   "latitudeRest": "39.73352",
   "longitudeRest": "-104.88433",
   "rating": 5,
   "code": "CO"
 },
 {
   "FIELD1": 261,
   "nameRest": "Tacos Tequila Whiskey",
   "latitudeRest": "39.7403831481934",
   "longitudeRest": "-104.959533691406",
   "rating": 4,
   "code": "CO"
 },
 {
   "FIELD1": 262,
   "nameRest": "Dos Santos",
   "latitudeRest": "39.74341",
   "longitudeRest": "-104.96919",
   "rating": 4,
   "code": "CO"
 },
 {
   "FIELD1": 263,
   "nameRest": "Otra Vez Cantina",
   "latitudeRest": "39.7446530620186",
   "longitudeRest": "-104.991783834994",
   "rating": 4,
   "code": "CO"
 },
 {
   "FIELD1": 264,
   "nameRest": "La Loteria Taqueria",
   "latitudeRest": "39.7158",
   "longitudeRest": "-104.9873",
   "rating": 4.5,
   "code": "CO"
 },
 {
   "FIELD1": 265,
   "nameRest": "Guadalajara Mexican Restaurant",
   "latitudeRest": "39.82754",
   "longitudeRest": "-105.02161",
   "rating": 4.5,
   "code": "CO"
 },
 {
   "FIELD1": 266,
   "nameRest": "Chakas Mexican Restaurant",
   "latitudeRest": "39.67894",
   "longitudeRest": "-104.91588",
   "rating": 4.5,
   "code": "CO"
 },
 {
   "FIELD1": 267,
   "nameRest": "7 Leguas Mexican Grille",
   "latitudeRest": "39.739974",
   "longitudeRest": "-104.934039",
   "rating": 4,
   "code": "CO"
 },
 {
   "FIELD1": 268,
   "nameRest": "Tarasco's",
   "latitudeRest": "39.70801",
   "longitudeRest": "-105.02469",
   "rating": 4.5,
   "code": "CO"
 },
 {
   "FIELD1": 269,
   "nameRest": "Super Mega Bien",
   "latitudeRest": "39.75733",
   "longitudeRest": "-104.9863699",
   "rating": 4.5,
   "code": "CO"
 },
 {
   "FIELD1": 270,
   "nameRest": "Machete Tequila + Tacos",
   "latitudeRest": "39.72124",
   "longitudeRest": "-104.9543",
   "rating": 4,
   "code": "CO"
 },
 {
   "FIELD1": 271,
   "nameRest": "Los Carboncitos",
   "latitudeRest": "39.76914",
   "longitudeRest": "-105.00665",
   "rating": 4,
   "code": "CO"
 },
 {
   "FIELD1": 272,
   "nameRest": "Tamayo",
   "latitudeRest": "39.74733455329732",
   "longitudeRest": "-104.99956317056962",
   "rating": 4,
   "code": "CO"
 },
 {
   "FIELD1": 273,
   "nameRest": "Machete Tequila + Tacos",
   "latitudeRest": "39.739801",
   "longitudeRest": "-104.945361",
   "rating": 4,
   "code": "CO"
 },
 {
   "FIELD1": 274,
   "nameRest": "Uno Mas Taqueria",
   "latitudeRest": "39.7254099",
   "longitudeRest": "-104.97786",
   "rating": 4,
   "code": "CO"
 },
 {
   "FIELD1": 275,
   "nameRest": "Perdida - Denver",
   "latitudeRest": "39.697193",
   "longitudeRest": "-104.961506",
   "rating": 4,
   "code": "CO"
 },
 {
   "FIELD1": 276,
   "nameRest": "Necio Mexican Kitchen",
   "latitudeRest": "39.7719147186158",
   "longitudeRest": "-105.011452532102",
   "rating": 4.5,
   "code": "CO"
 },
 {
   "FIELD1": 277,
   "nameRest": "100% de Agave",
   "latitudeRest": "39.7318820372198",
   "longitudeRest": "-104.98641371727",
   "rating": 3.5,
   "code": "CO"
 },
 {
   "FIELD1": 278,
   "nameRest": "Blue Agave Grill",
   "latitudeRest": "39.748831",
   "longitudeRest": "-104.996582",
   "rating": 4,
   "code": "CO"
 },
 {
   "FIELD1": 279,
   "nameRest": "El Callejon",
   "latitudeRest": "39.7553",
   "longitudeRest": "-105.220922",
   "rating": 4.5,
   "code": "CO"
 },
 {
   "FIELD1": 280,
   "nameRest": "Toro Latin Kitchen & Lounge",
   "latitudeRest": "39.718957",
   "longitudeRest": "-104.955457",
   "rating": 4.5,
   "code": "CO"
 },
 {
   "FIELD1": 281,
   "nameRest": "Rioja",
   "latitudeRest": "39.7478083125095",
   "longitudeRest": "-104.999331349925",
   "rating": 4.5,
   "code": "CO"
 },
 {
   "FIELD1": 282,
   "nameRest": "Las Delicias Uptown",
   "latitudeRest": "39.74632",
   "longitudeRest": "-104.98133",
   "rating": 3,
   "code": "CO"
 },
 {
   "FIELD1": 283,
   "nameRest": "3 Girasoles",
   "latitudeRest": "39.7643949575026",
   "longitudeRest": "-104.952556192875",
   "rating": 4.5,
   "code": "CO"
 },
 {
   "FIELD1": 284,
   "nameRest": "Adelitas Cocina Y Cantina",
   "latitudeRest": "39.69332",
   "longitudeRest": "-104.987145",
   "rating": 4,
   "code": "CO"
 },
 {
   "FIELD1": 285,
   "nameRest": "Kachina Cantina - Denver",
   "latitudeRest": "39.7537748921597",
   "longitudeRest": "-104.996429128836",
   "rating": 4,
   "code": "CO"
 },
 {
   "FIELD1": 286,
   "nameRest": "D'Corazon",
   "latitudeRest": "39.7499084472656",
   "longitudeRest": "-104.999519348145",
   "rating": 4,
   "code": "CO"
 },
 {
   "FIELD1": 287,
   "nameRest": "La Abeja",
   "latitudeRest": "39.7399",
   "longitudeRest": "-104.98079",
   "rating": 4.5,
   "code": "CO"
 },
 {
   "FIELD1": 288,
   "nameRest": "Little Anita's",
   "latitudeRest": "39.68845158340137",
   "longitudeRest": "-104.93996929964115",
   "rating": 4,
   "code": "CO"
 },
 {
   "FIELD1": 289,
   "nameRest": "Tacos El Metate",
   "latitudeRest": "39.678958",
   "longitudeRest": "-104.959077",
   "rating": 4.5,
   "code": "CO"
 },
 {
   "FIELD1": 290,
   "nameRest": "Chili Shack",
   "latitudeRest": "39.7404724657143",
   "longitudeRest": "-105.096671004797",
   "rating": 3.5,
   "code": "CO"
 },
 {
   "FIELD1": 291,
   "nameRest": "Work & Class",
   "latitudeRest": "39.75761",
   "longitudeRest": "-104.98604",
   "rating": 4.5,
   "code": "CO"
 },
 {
   "FIELD1": 292,
   "nameRest": "Las Tortas",
   "latitudeRest": "39.70809",
   "longitudeRest": "-104.92546",
   "rating": 4.5,
   "code": "CO"
 },
 {
   "FIELD1": 293,
   "nameRest": "Camila's Mexican Grill",
   "latitudeRest": "39.7598",
   "longitudeRest": "-104.98425",
   "rating": 4.5,
   "code": "CO"
 },
 {
   "FIELD1": 294,
   "nameRest": "Los Dos Potrillos",
   "latitudeRest": "39.56658216708932",
   "longitudeRest": "-104.924394",
   "rating": 4,
   "code": "CO"
 },
 {
   "FIELD1": 295,
   "nameRest": "Los Molinos Restaurant",
   "latitudeRest": "39.7646349",
   "longitudeRest": "-104.9681066",
   "rating": 4,
   "code": "CO"
 },
 {
   "FIELD1": 296,
   "nameRest": "Casa Mariachi",
   "latitudeRest": "39.53926",
   "longitudeRest": "-104.76986",
   "rating": 4,
   "code": "CO"
 },
 {
   "FIELD1": 297,
   "nameRest": "Casa Don Juan",
   "latitudeRest": "39.7892643527715",
   "longitudeRest": "-104.977995269001",
   "rating": 4.5,
   "code": "CO"
 },
 {
   "FIELD1": 298,
   "nameRest": "Blue Tide Tacos",
   "latitudeRest": "39.71954",
   "longitudeRest": "-104.95654",
   "rating": 5,
   "code": "CO"
 },
 {
   "FIELD1": 299,
   "nameRest": "el consome de morelos",
   "latitudeRest": "39.7402175680333",
   "longitudeRest": "-105.04957202822",
   "rating": 5,
   "code": "CO"
 },
 {
   "FIELD1": 300,
   "nameRest": "Taqueria La Grande",
   "latitudeRest": "41.757686",
   "longitudeRest": "-72.7222181",
   "rating": 4.5,
   "code": "CT"
 },
 {
   "FIELD1": 301,
   "nameRest": "Monte Alban Restaurant",
   "latitudeRest": "41.7662633",
   "longitudeRest": "-72.7097456",
   "rating": 4,
   "code": "CT"
 },
 {
   "FIELD1": 302,
   "nameRest": "Fogata Mexican Restaurant",
   "latitudeRest": "41.766522",
   "longitudeRest": "-72.712106",
   "rating": 4.5,
   "code": "CT"
 },
 {
   "FIELD1": 303,
   "nameRest": "El Nuevo Sarape Restaurant",
   "latitudeRest": "41.7567139",
   "longitudeRest": "-72.6873383",
   "rating": 4,
   "code": "CT"
 },
 {
   "FIELD1": 304,
   "nameRest": "Agave Grill",
   "latitudeRest": "41.768546",
   "longitudeRest": "-72.6782116",
   "rating": 3.5,
   "code": "CT"
 },
 {
   "FIELD1": 305,
   "nameRest": "Ocho Cafe",
   "latitudeRest": "41.7843256",
   "longitudeRest": "-72.7465883",
   "rating": 4,
   "code": "CT"
 },
 {
   "FIELD1": 306,
   "nameRest": "Frida",
   "latitudeRest": "41.73281",
   "longitudeRest": "-72.73474",
   "rating": 4,
   "code": "CT"
 },
 {
   "FIELD1": 307,
   "nameRest": "El Pollo Guapo",
   "latitudeRest": "41.7626800556192",
   "longitudeRest": "-72.6714269815767",
   "rating": 4.5,
   "code": "CT"
 },
 {
   "FIELD1": 308,
   "nameRest": "Toro Taberna",
   "latitudeRest": "41.75737",
   "longitudeRest": "-72.72215",
   "rating": 4,
   "code": "CT"
 },
 {
   "FIELD1": 309,
   "nameRest": "Puerto Vallarta - Newington",
   "latitudeRest": "41.68682",
   "longitudeRest": "-72.7086099",
   "rating": 4,
   "code": "CT"
 },
 {
   "FIELD1": 310,
   "nameRest": "El Mercado",
   "latitudeRest": "41.7582",
   "longitudeRest": "-72.68868",
   "rating": 4,
   "code": "CT"
 },
 {
   "FIELD1": 311,
   "nameRest": "Salsas 4 Taqueria",
   "latitudeRest": "41.684597",
   "longitudeRest": "-72.708385",
   "rating": 4.5,
   "code": "CT"
 },
 {
   "FIELD1": 312,
   "nameRest": "Agave's Taqueria",
   "latitudeRest": "41.7662471346703",
   "longitudeRest": "-72.6728839010511",
   "rating": 4,
   "code": "CT"
 },
 {
   "FIELD1": 313,
   "nameRest": "bartaco - West Hartford",
   "latitudeRest": "41.76096",
   "longitudeRest": "-72.74341",
   "rating": 4,
   "code": "CT"
 },
 {
   "FIELD1": 314,
   "nameRest": "Fuego Picante Food Truck",
   "latitudeRest": "41.7631292",
   "longitudeRest": "-72.6774979",
   "rating": 4.5,
   "code": "CT"
 },
 {
   "FIELD1": 315,
   "nameRest": "Cora Cora",
   "latitudeRest": "41.728683942227",
   "longitudeRest": "-72.7208279474441",
   "rating": 4.5,
   "code": "CT"
 },
 {
   "FIELD1": 316,
   "nameRest": "MexiPHO",
   "latitudeRest": "41.7216304764136",
   "longitudeRest": "-72.6139745037049",
   "rating": 4,
   "code": "CT"
 },
 {
   "FIELD1": 317,
   "nameRest": "El Pollo Guapo",
   "latitudeRest": "41.70963",
   "longitudeRest": "-72.60211",
   "rating": 4.5,
   "code": "CT"
 },
 {
   "FIELD1": 318,
   "nameRest": "La Casita Del Sabor",
   "latitudeRest": "41.758005",
   "longitudeRest": "-72.7016367",
   "rating": 4.5,
   "code": "CT"
 },
 {
   "FIELD1": 319,
   "nameRest": "Coyote Flaco Mexican Food",
   "latitudeRest": "41.7337567",
   "longitudeRest": "-72.7021703",
   "rating": 4,
   "code": "CT"
 },
 {
   "FIELD1": 320,
   "nameRest": "Margaritas Mexican Restaurant",
   "latitudeRest": "41.7686847297583",
   "longitudeRest": "-72.6215071480661",
   "rating": 3,
   "code": "CT"
 },
 {
   "FIELD1": 321,
   "nameRest": "El Senor De Los Tamales",
   "latitudeRest": "41.7437",
   "longitudeRest": "-72.67601",
   "rating": 4.5,
   "code": "CT"
 },
 {
   "FIELD1": 322,
   "nameRest": "Las Tortas MX",
   "latitudeRest": "41.75856",
   "longitudeRest": "-72.7018",
   "rating": 5,
   "code": "CT"
 },
 {
   "FIELD1": 323,
   "nameRest": "El Pollo Guapo",
   "latitudeRest": "41.7030469",
   "longitudeRest": "-72.702149",
   "rating": 4.5,
   "code": "CT"
 },
 {
   "FIELD1": 324,
   "nameRest": "Tequila Rio",
   "latitudeRest": "41.713913",
   "longitudeRest": "-72.643611",
   "rating": 3,
   "code": "CT"
 },
 {
   "FIELD1": 325,
   "nameRest": "Melina's Restaurant",
   "latitudeRest": "41.7782322503177",
   "longitudeRest": "-72.6181828603148",
   "rating": 4,
   "code": "CT"
 },
 {
   "FIELD1": 326,
   "nameRest": "Salsa Fresca Mexican Grill",
   "latitudeRest": "41.78508",
   "longitudeRest": "-72.748417",
   "rating": 4.5,
   "code": "CT"
 },
 {
   "FIELD1": 327,
   "nameRest": "Donde Julio Restaurant- Hartford",
   "latitudeRest": "41.7572218",
   "longitudeRest": "-72.6774022",
   "rating": 4.5,
   "code": "CT"
 },
 {
   "FIELD1": 328,
   "nameRest": "El Bajio Restaurant",
   "latitudeRest": "41.742449",
   "longitudeRest": "-72.6764327",
   "rating": 4,
   "code": "CT"
 },
 {
   "FIELD1": 329,
   "nameRest": "Food truck american & mexican tasty flavors",
   "latitudeRest": "41.74059",
   "longitudeRest": "-72.68367",
   "rating": 5,
   "code": "CT"
 },
 {
   "FIELD1": 330,
   "nameRest": "Cisco's American Breakfast & Mexican Cuisine",
   "latitudeRest": "41.7180156",
   "longitudeRest": "-72.7174877",
   "rating": 4,
   "code": "CT"
 },
 {
   "FIELD1": 331,
   "nameRest": "Que Chivo",
   "latitudeRest": "41.758673",
   "longitudeRest": "-72.701851",
   "rating": 4.5,
   "code": "CT"
 },
 {
   "FIELD1": 332,
   "nameRest": "Burrito Loko",
   "latitudeRest": "41.75856",
   "longitudeRest": "-72.7018",
   "rating": 3.5,
   "code": "CT"
 },
 {
   "FIELD1": 333,
   "nameRest": "Max Downtown",
   "latitudeRest": "41.766767",
   "longitudeRest": "-72.676782",
   "rating": 4,
   "code": "CT"
 },
 {
   "FIELD1": 334,
   "nameRest": "Loco Urban Street Food",
   "latitudeRest": "41.757372",
   "longitudeRest": "-72.722041",
   "rating": 3,
   "code": "CT"
 },
 {
   "FIELD1": 335,
   "nameRest": "Nicolas Pizza & Mexican Eatery",
   "latitudeRest": "41.68359",
   "longitudeRest": "-72.73089",
   "rating": 4,
   "code": "CT"
 },
 {
   "FIELD1": 336,
   "nameRest": "The Spicy Green Bean",
   "latitudeRest": "41.7140754885517",
   "longitudeRest": "-72.6046942714442",
   "rating": 4,
   "code": "CT"
 },
 {
   "FIELD1": 337,
   "nameRest": "Little River Restoratives",
   "latitudeRest": "41.7636674445296",
   "longitudeRest": "-72.6889854612039",
   "rating": 4.5,
   "code": "CT"
 },
 {
   "FIELD1": 338,
   "nameRest": "River: A Waterfront Restaurant & Bar",
   "latitudeRest": "41.71366",
   "longitudeRest": "-72.6445899",
   "rating": 3.5,
   "code": "CT"
 },
 {
   "FIELD1": 339,
   "nameRest": "El Nopal Mexican Restaurant",
   "latitudeRest": "41.7565",
   "longitudeRest": "-72.71129",
   "rating": 5,
   "code": "CT"
 },
 {
   "FIELD1": 340,
   "nameRest": "The Flying Monkey Grill Bar",
   "latitudeRest": "41.696756",
   "longitudeRest": "-72.705452",
   "rating": 4,
   "code": "CT"
 },
 {
   "FIELD1": 341,
   "nameRest": "Moe's Southwest Grill",
   "latitudeRest": "41.7665647936312",
   "longitudeRest": "-72.6726708001408",
   "rating": 2.5,
   "code": "CT"
 },
 {
   "FIELD1": 342,
   "nameRest": "The Corner Pug",
   "latitudeRest": "41.730542268783",
   "longitudeRest": "-72.725773590701",
   "rating": 3.5,
   "code": "CT"
 },
 {
   "FIELD1": 343,
   "nameRest": "The Kitchen",
   "latitudeRest": "41.7619257",
   "longitudeRest": "-72.6869584",
   "rating": 4.5,
   "code": "CT"
 },
 {
   "FIELD1": 344,
   "nameRest": "Rooster Co.",
   "latitudeRest": "41.69718",
   "longitudeRest": "-72.72316",
   "rating": 4,
   "code": "CT"
 },
 {
   "FIELD1": 345,
   "nameRest": "Barcelona Wine Bar",
   "latitudeRest": "41.760965",
   "longitudeRest": "-72.743409",
   "rating": 4.5,
   "code": "CT"
 },
 {
   "FIELD1": 346,
   "nameRest": "Moe's Southwest Grill",
   "latitudeRest": "41.786368635997086",
   "longitudeRest": "-72.74625748459482",
   "rating": 1.5,
   "code": "CT"
 },
 {
   "FIELD1": 347,
   "nameRest": "J. Gilbert's Wood-Fired Steaks & Seafood Glastonbury",
   "latitudeRest": "41.721414",
   "longitudeRest": "-72.622947",
   "rating": 4.5,
   "code": "CT"
 },
 {
   "FIELD1": 348,
   "nameRest": "Tisane Euro Asian Cafe",
   "latitudeRest": "41.766",
   "longitudeRest": "-72.7101799",
   "rating": 4,
   "code": "CT"
 },
 {
   "FIELD1": 349,
   "nameRest": "Carmine's Bar, Grill & Stage",
   "latitudeRest": "41.748475",
   "longitudeRest": "-72.638256",
   "rating": 4.5,
   "code": "CT"
 },
 {
   "FIELD1": 350,
   "nameRest": "Taqueria Habanero",
   "latitudeRest": "38.93755",
   "longitudeRest": "-77.03309",
   "rating": 4.5,
   "code": "DC"
 },
 {
   "FIELD1": 351,
   "nameRest": "Paraíso Taqueria & Mezcaleria",
   "latitudeRest": "38.882393554287574",
   "longitudeRest": "-76.99135478102832",
   "rating": 4.5,
   "code": "DC"
 },
 {
   "FIELD1": 352,
   "nameRest": "El Sol Restaurant & Tequileria",
   "latitudeRest": "38.9066",
   "longitudeRest": "-77.02667",
   "rating": 4,
   "code": "DC"
 },
 {
   "FIELD1": 353,
   "nameRest": "Republic Cantina",
   "latitudeRest": "38.90745",
   "longitudeRest": "-77.01086",
   "rating": 4,
   "code": "DC"
 },
 {
   "FIELD1": 354,
   "nameRest": "DC Corazon",
   "latitudeRest": "38.93890303374206",
   "longitudeRest": "-77.032442",
   "rating": 4.5,
   "code": "DC"
 },
 {
   "FIELD1": 355,
   "nameRest": "Mexicue",
   "latitudeRest": "38.913338",
   "longitudeRest": "-77.032387",
   "rating": 4,
   "code": "DC"
 },
 {
   "FIELD1": 356,
   "nameRest": "Oyamel",
   "latitudeRest": "38.89495",
   "longitudeRest": "-77.02167",
   "rating": 3.5,
   "code": "DC"
 },
 {
   "FIELD1": 357,
   "nameRest": "Las Placitas",
   "latitudeRest": "38.87734",
   "longitudeRest": "-76.9947",
   "rating": 4,
   "code": "DC"
 },
 {
   "FIELD1": 358,
   "nameRest": "Rosa Mexicano",
   "latitudeRest": "38.78458381349936",
   "longitudeRest": "-77.01661819999978",
   "rating": 3.5,
   "code": "MD"
 },
 {
   "FIELD1": 359,
   "nameRest": "El Papi Real Street Tacos",
   "latitudeRest": "38.80141",
   "longitudeRest": "-76.90533",
   "rating": 4,
   "code": "MD"
 },
 {
   "FIELD1": 360,
   "nameRest": "El Centro",
   "latitudeRest": "38.90569",
   "longitudeRest": "-77.06303",
   "rating": 3,
   "code": "DC"
 },
 {
   "FIELD1": 361,
   "nameRest": "Los Tios Grill",
   "latitudeRest": "38.8291015625",
   "longitudeRest": "-77.0588684082031",
   "rating": 4,
   "code": "VA"
 },
 {
   "FIELD1": 362,
   "nameRest": "Mission",
   "latitudeRest": "38.91149",
   "longitudeRest": "-77.04519",
   "rating": 4,
   "code": "DC"
 },
 {
   "FIELD1": 363,
   "nameRest": "Pisco Y Nazca",
   "latitudeRest": "38.90398223",
   "longitudeRest": "-77.0426388",
   "rating": 4.5,
   "code": "DC"
 },
 {
   "FIELD1": 364,
   "nameRest": "La Cosecha",
   "latitudeRest": "38.909007",
   "longitudeRest": "-76.9996115",
   "rating": 4.5,
   "code": "DC"
 },
 {
   "FIELD1": 365,
   "nameRest": "Mezcalero",
   "latitudeRest": "38.93763",
   "longitudeRest": "-77.03309",
   "rating": 4,
   "code": "DC"
 },
 {
   "FIELD1": 366,
   "nameRest": "Espita",
   "latitudeRest": "38.907123783324",
   "longitudeRest": "-77.0241962192309",
   "rating": 4,
   "code": "DC"
 },
 {
   "FIELD1": 367,
   "nameRest": "dLeña",
   "latitudeRest": "38.902279",
   "longitudeRest": "-77.018701",
   "rating": 4.5,
   "code": "DC"
 },
 {
   "FIELD1": 368,
   "nameRest": "Mi Casa",
   "latitudeRest": "38.91246346833517",
   "longitudeRest": "-77.04466236600175",
   "rating": 4,
   "code": "DC"
 },
 {
   "FIELD1": 369,
   "nameRest": "MXDC Cocina Mexicana",
   "latitudeRest": "38.897488",
   "longitudeRest": "-77.03196",
   "rating": 3.5,
   "code": "DC"
 },
 {
   "FIELD1": 370,
   "nameRest": "District Taco",
   "latitudeRest": "38.897612120590445",
   "longitudeRest": "-77.03013522122241",
   "rating": 4,
   "code": "DC"
 },
 {
   "FIELD1": 371,
   "nameRest": "Mi Vida Restaurante",
   "latitudeRest": "38.8799058",
   "longitudeRest": "-77.025148",
   "rating": 4,
   "code": "DC"
 },
 {
   "FIELD1": 372,
   "nameRest": "Taqueria Xochi",
   "latitudeRest": "38.916845",
   "longitudeRest": "-77.0249722",
   "rating": 4.5,
   "code": "DC"
 },
 {
   "FIELD1": 373,
   "nameRest": "Rosa Mexicano",
   "latitudeRest": "38.89686298800688",
   "longitudeRest": "-77.02164548404512",
   "rating": 3.5,
   "code": "DC"
 },
 {
   "FIELD1": 374,
   "nameRest": "Tequila & Mezcal",
   "latitudeRest": "38.93442",
   "longitudeRest": "-77.03244",
   "rating": 4.5,
   "code": "DC"
 },
 {
   "FIELD1": 375,
   "nameRest": "Taqueria & Rosticeria Fresca",
   "latitudeRest": "38.89992",
   "longitudeRest": "-76.99596",
   "rating": 3.5,
   "code": "DC"
 },
 {
   "FIELD1": 376,
   "nameRest": "El Bebe Tacos + Tequila",
   "latitudeRest": "38.87629",
   "longitudeRest": "-77.00629",
   "rating": 4,
   "code": "DC"
 },
 {
   "FIELD1": 377,
   "nameRest": "Don Taco",
   "latitudeRest": "38.805096",
   "longitudeRest": "-77.048502",
   "rating": 4,
   "code": "VA"
 },
 {
   "FIELD1": 378,
   "nameRest": "Tico DC",
   "latitudeRest": "38.9165859109143",
   "longitudeRest": "-77.0321365079346",
   "rating": 4,
   "code": "DC"
 },
 {
   "FIELD1": 379,
   "nameRest": "Casa Oaxaca",
   "latitudeRest": "38.98834",
   "longitudeRest": "-77.09693",
   "rating": 4,
   "code": "MD"
 },
 {
   "FIELD1": 380,
   "nameRest": "La Puerta Verde",
   "latitudeRest": "38.91475",
   "longitudeRest": "-76.98451",
   "rating": 4,
   "code": "DC"
 },
 {
   "FIELD1": 381,
   "nameRest": "Tortas Y Tacos La Chiquita",
   "latitudeRest": "38.86258",
   "longitudeRest": "-77.08744",
   "rating": 4.5,
   "code": "VA"
 },
 {
   "FIELD1": 382,
   "nameRest": "Taqueria La Placita",
   "latitudeRest": "38.9504547119141",
   "longitudeRest": "-76.9261474609375",
   "rating": 4,
   "code": "MD"
 },
 {
   "FIELD1": 383,
   "nameRest": "Lauriol Plaza",
   "latitudeRest": "38.9152067",
   "longitudeRest": "-77.0415179",
   "rating": 3.5,
   "code": "DC"
 },
 {
   "FIELD1": 384,
   "nameRest": "Surfside",
   "latitudeRest": "38.943537",
   "longitudeRest": "-77.077791",
   "rating": 4,
   "code": "DC"
 },
 {
   "FIELD1": 385,
   "nameRest": "Taco Bamba",
   "latitudeRest": "38.901996",
   "longitudeRest": "-77.205455",
   "rating": 4.5,
   "code": "VA"
 },
 {
   "FIELD1": 386,
   "nameRest": "Taqueria Habanero",
   "latitudeRest": "38.991233",
   "longitudeRest": "-76.932476",
   "rating": 4.5,
   "code": "MD"
 },
 {
   "FIELD1": 387,
   "nameRest": "Cielo Rojo",
   "latitudeRest": "38.97522",
   "longitudeRest": "-77.01055",
   "rating": 4.5,
   "code": "MD"
 },
 {
   "FIELD1": 388,
   "nameRest": "El Rey",
   "latitudeRest": "38.9171363",
   "longitudeRest": "-77.0248018",
   "rating": 3.5,
   "code": "DC"
 },
 {
   "FIELD1": 389,
   "nameRest": "Uncle Julio's",
   "latitudeRest": "38.8824607324308",
   "longitudeRest": "-77.1129603299939",
   "rating": 3.5,
   "code": "VA"
 },
 {
   "FIELD1": 390,
   "nameRest": "Taco City DC",
   "latitudeRest": "38.87733",
   "longitudeRest": "-76.99469",
   "rating": 4.5,
   "code": "DC"
 },
 {
   "FIELD1": 391,
   "nameRest": "Bandit Taco",
   "latitudeRest": "38.91678",
   "longitudeRest": "-77.03712",
   "rating": 4,
   "code": "DC"
 },
 {
   "FIELD1": 392,
   "nameRest": "Agua 301",
   "latitudeRest": "38.87327",
   "longitudeRest": "-77.001714",
   "rating": 3.5,
   "code": "DC"
 },
 {
   "FIELD1": 393,
   "nameRest": "Cactus Cantina",
   "latitudeRest": "38.93371",
   "longitudeRest": "-77.07271",
   "rating": 3.5,
   "code": "DC"
 },
 {
   "FIELD1": 394,
   "nameRest": "El Camino",
   "latitudeRest": "38.9153757384806",
   "longitudeRest": "-77.012655030923",
   "rating": 3.5,
   "code": "DC"
 },
 {
   "FIELD1": 395,
   "nameRest": "Estadio",
   "latitudeRest": "38.9101686345639",
   "longitudeRest": "-77.0320932872478",
   "rating": 4,
   "code": "DC"
 },
 {
   "FIELD1": 396,
   "nameRest": "Muchas Gracias",
   "latitudeRest": "38.95577",
   "longitudeRest": "-77.06987",
   "rating": 4.5,
   "code": "DC"
 },
 {
   "FIELD1": 397,
   "nameRest": "Taqueria Los Primos",
   "latitudeRest": "39.1135056",
   "longitudeRest": "-76.8348075",
   "rating": 4.5,
   "code": "MD"
 },
 {
   "FIELD1": 398,
   "nameRest": "Mission Navy Yard",
   "latitudeRest": "38.8761485",
   "longitudeRest": "-77.0083449",
   "rating": 4,
   "code": "DC"
 },
 {
   "FIELD1": 399,
   "nameRest": "Urbano 116",
   "latitudeRest": "38.80419",
   "longitudeRest": "-77.04094",
   "rating": 4,
   "code": "VA"
 },
 {
   "FIELD1": 400,
   "nameRest": "El Tapatio",
   "latitudeRest": "36.6993921485938",
   "longitudeRest": "-95.6299075322822",
   "rating": 4,
   "code": "OK"
 },
 {
   "FIELD1": 401,
   "nameRest": "Super Centro La Tienda El Rincon",
   "latitudeRest": "36.750163",
   "longitudeRest": "-95.96319",
   "rating": 4.5,
   "code": "OK"
 },
 {
   "FIELD1": 402,
   "nameRest": "El Pueblito Mexican Restaurant",
   "latitudeRest": "37.0378861",
   "longitudeRest": "-95.5987",
   "rating": 4,
   "code": "KS"
 },
 {
   "FIELD1": 403,
   "nameRest": "Sabores Mexican Cuisine",
   "latitudeRest": "36.78761",
   "longitudeRest": "-95.93522",
   "rating": 4,
   "code": "OK"
 },
 {
   "FIELD1": 404,
   "nameRest": "El charro",
   "latitudeRest": "37.032782",
   "longitudeRest": "-95.620188",
   "rating": 3,
   "code": "KS"
 },
 {
   "FIELD1": 405,
   "nameRest": "Forasteros Mexican Food",
   "latitudeRest": "37.0113773459704",
   "longitudeRest": "-95.9364105015993",
   "rating": 3,
   "code": "KS"
 },
 {
   "FIELD1": 406,
   "nameRest": "Litos Mexican Restaurant",
   "latitudeRest": "36.7129415",
   "longitudeRest": "-95.9352549",
   "rating": 5,
   "code": "OK"
 },
 {
   "FIELD1": 407,
   "nameRest": "El Maguey Mexican Grill & Cantina",
   "latitudeRest": "36.7239618",
   "longitudeRest": "-95.934269",
   "rating": 3.5,
   "code": "OK"
 },
 {
   "FIELD1": 408,
   "nameRest": "Tacos Pachitas",
   "latitudeRest": "36.75143",
   "longitudeRest": "-95.98395",
   "rating": 4.5,
   "code": "OK"
 },
 {
   "FIELD1": 409,
   "nameRest": "La Fiesta",
   "latitudeRest": "36.787009",
   "longitudeRest": "-95.935717",
   "rating": 1.5,
   "code": "OK"
 },
 {
   "FIELD1": 410,
   "nameRest": "La Fiesta Mexican Restaurant",
   "latitudeRest": "36.7318384691651",
   "longitudeRest": "-95.9349074587226",
   "rating": 3,
   "code": "OK"
 },
 {
   "FIELD1": 411,
   "nameRest": "Fridas Cocina Mexicana",
   "latitudeRest": "36.743759977588",
   "longitudeRest": "-95.9167200699449",
   "rating": 4,
   "code": "OK"
 },
 {
   "FIELD1": 412,
   "nameRest": "Senor Salsa",
   "latitudeRest": "36.746530404936",
   "longitudeRest": "-95.936106431331",
   "rating": 3.5,
   "code": "OK"
 },
 {
   "FIELD1": 413,
   "nameRest": "Tacos Maria",
   "latitudeRest": "36.751268508257",
   "longitudeRest": "-95.9331006747859",
   "rating": 4.5,
   "code": "OK"
 },
 {
   "FIELD1": 414,
   "nameRest": "Monterey's Little Mexico",
   "latitudeRest": "36.7445499",
   "longitudeRest": "-95.9331799",
   "rating": 3,
   "code": "OK"
 },
 {
   "FIELD1": 415,
   "nameRest": "El Corral Mexican Restaurant",
   "latitudeRest": "36.750382",
   "longitudeRest": "-95.965936",
   "rating": 5,
   "code": "OK"
 },
 {
   "FIELD1": 416,
   "nameRest": "El Burrito Azteca",
   "latitudeRest": "36.7504168",
   "longitudeRest": "-95.9629759",
   "rating": 5,
   "code": "OK"
 },
 {
   "FIELD1": 417,
   "nameRest": "Painted Horse",
   "latitudeRest": "36.7514835457086",
   "longitudeRest": "-95.9779620951496",
   "rating": 4,
   "code": "OK"
 },
 {
   "FIELD1": 418,
   "nameRest": "Shorties Grille",
   "latitudeRest": "36.75042",
   "longitudeRest": "-95.976477",
   "rating": 4,
   "code": "OK"
 },
 {
   "FIELD1": 419,
   "nameRest": "Frank & Lola's",
   "latitudeRest": "36.7521890887144",
   "longitudeRest": "-95.9755241498351",
   "rating": 4,
   "code": "OK"
 },
 {
   "FIELD1": 420,
   "nameRest": "Taco Bell",
   "latitudeRest": "37.034135",
   "longitudeRest": "-95.64268",
   "rating": 1.5,
   "code": "KS"
 },
 {
   "FIELD1": 421,
   "nameRest": "Medusa Grill & Bar",
   "latitudeRest": "36.75492951518951",
   "longitudeRest": "-95.93605177270646",
   "rating": 1,
   "code": "OK"
 },
 {
   "FIELD1": 422,
   "nameRest": "Taco Bueno",
   "latitudeRest": "36.715761423111",
   "longitudeRest": "-95.9350633621216",
   "rating": 1.5,
   "code": "OK"
 },
 {
   "FIELD1": 423,
   "nameRest": "McAlister's Deli",
   "latitudeRest": "36.71651",
   "longitudeRest": "-95.93452",
   "rating": 3,
   "code": "OK"
 },
 {
   "FIELD1": 424,
   "nameRest": "Taco Bell",
   "latitudeRest": "36.74004",
   "longitudeRest": "-95.93401",
   "rating": 1.5,
   "code": "OK"
 },
 {
   "FIELD1": 425,
   "nameRest": "IHOP",
   "latitudeRest": "36.732716",
   "longitudeRest": "-95.934279",
   "rating": 2.5,
   "code": "OK"
 },
 {
   "FIELD1": 426,
   "nameRest": "Chili's",
   "latitudeRest": "36.7192",
   "longitudeRest": "-95.93574",
   "rating": 3,
   "code": "OK"
 },
 {
   "FIELD1": 427,
   "nameRest": "Taco Mayo",
   "latitudeRest": "36.7504851",
   "longitudeRest": "-95.9378792",
   "rating": 2.5,
   "code": "OK"
 },
 {
   "FIELD1": 428,
   "nameRest": "Taquería La Oaxaqueña",
   "latitudeRest": "33.5726816172075",
   "longitudeRest": "-84.3707637861371",
   "rating": 4.5,
   "code": "GA"
 },
 {
   "FIELD1": 429,
   "nameRest": "Nuevo Laredo Cantina",
   "latitudeRest": "33.8094340325727",
   "longitudeRest": "-84.4367971831875",
   "rating": 4,
   "code": "GA"
 },
 {
   "FIELD1": 430,
   "nameRest": "La Pastorcita",
   "latitudeRest": "33.84308",
   "longitudeRest": "-84.32924",
   "rating": 4,
   "code": "GA"
 },
 {
   "FIELD1": 431,
   "nameRest": "Alma Cocina Buckhead",
   "latitudeRest": "33.844425",
   "longitudeRest": "-84.3710444",
   "rating": 4.5,
   "code": "GA"
 },
 {
   "FIELD1": 432,
   "nameRest": "Tacos and Tequilas Mexican Grill",
   "latitudeRest": "33.8714052",
   "longitudeRest": "-84.3800708",
   "rating": 4,
   "code": "GA"
 },
 {
   "FIELD1": 433,
   "nameRest": "Casi Cielo",
   "latitudeRest": "33.92237",
   "longitudeRest": "-84.378885",
   "rating": 4.5,
   "code": "GA"
 },
 {
   "FIELD1": 434,
   "nameRest": "Tacos & Tequilas Mexican Grill",
   "latitudeRest": "33.7736517978508",
   "longitudeRest": "-84.3669048859579",
   "rating": 3.5,
   "code": "GA"
 },
 {
   "FIELD1": 435,
   "nameRest": "El Rey del Taco",
   "latitudeRest": "33.8970456631336",
   "longitudeRest": "-84.2819186300039",
   "rating": 4,
   "code": "GA"
 },
 {
   "FIELD1": 436,
   "nameRest": "Tacos La Villa",
   "latitudeRest": "33.8929143",
   "longitudeRest": "-84.4779433",
   "rating": 4.5,
   "code": "GA"
 },
 {
   "FIELD1": 437,
   "nameRest": "The Original El Taco",
   "latitudeRest": "33.786997",
   "longitudeRest": "-84.355746",
   "rating": 4,
   "code": "GA"
 },
 {
   "FIELD1": 438,
   "nameRest": "El Tesoro",
   "latitudeRest": "33.74941011022",
   "longitudeRest": "-84.3426381424069",
   "rating": 4.5,
   "code": "GA"
 },
 {
   "FIELD1": 439,
   "nameRest": "Moctezuma Mexican Grill",
   "latitudeRest": "34.0966604343402",
   "longitudeRest": "-84.2604239648368",
   "rating": 4.5,
   "code": "GA"
 },
 {
   "FIELD1": 440,
   "nameRest": "Alebrije Mexican Cuisine",
   "latitudeRest": "34.0011992543378",
   "longitudeRest": "-84.0819977673897",
   "rating": 5,
   "code": "GA"
 },
 {
   "FIELD1": 441,
   "nameRest": "Las Tortas Locas",
   "latitudeRest": "33.859923679213",
   "longitudeRest": "-84.3089949540922",
   "rating": 4.5,
   "code": "GA"
 },
 {
   "FIELD1": 442,
   "nameRest": "La Parrilla Mexican Restaurant",
   "latitudeRest": "33.8147766440452",
   "longitudeRest": "-84.3108190682695",
   "rating": 3.5,
   "code": "GA"
 },
 {
   "FIELD1": 443,
   "nameRest": "Senor Patron",
   "latitudeRest": "33.7783548867456",
   "longitudeRest": "-84.38512119610505",
   "rating": 4,
   "code": "GA"
 },
 {
   "FIELD1": 444,
   "nameRest": "No Mas! Cantina",
   "latitudeRest": "33.74969",
   "longitudeRest": "-84.40089",
   "rating": 3.5,
   "code": "GA"
 },
 {
   "FIELD1": 445,
   "nameRest": "Mi Barrio",
   "latitudeRest": "33.7464714",
   "longitudeRest": "-84.368782",
   "rating": 4,
   "code": "GA"
 },
 {
   "FIELD1": 446,
   "nameRest": "Agavero Cantina - Atlanta",
   "latitudeRest": "33.78955472512522",
   "longitudeRest": "-84.4257514116566",
   "rating": 4,
   "code": "GA"
 },
 {
   "FIELD1": 447,
   "nameRest": "Bone Garden Cantina",
   "latitudeRest": "33.7939834594727",
   "longitudeRest": "-84.4259338378906",
   "rating": 4,
   "code": "GA"
 },
 {
   "FIELD1": 448,
   "nameRest": "El Potro Mexican Restaurant",
   "latitudeRest": "33.845287322998",
   "longitudeRest": "-84.326789855957",
   "rating": 4,
   "code": "GA"
 },
 {
   "FIELD1": 449,
   "nameRest": "Little Rey",
   "latitudeRest": "33.80799167",
   "longitudeRest": "-84.36634667",
   "rating": 4,
   "code": "GA"
 },
 {
   "FIELD1": 450,
   "nameRest": "Botica",
   "latitudeRest": "33.80535036744924",
   "longitudeRest": "-84.39418199612047",
   "rating": 4,
   "code": "GA"
 },
 {
   "FIELD1": 451,
   "nameRest": "El Indio Mexican Resturante & Taqueria",
   "latitudeRest": "33.8907423732616",
   "longitudeRest": "-84.2126888036728",
   "rating": 4,
   "code": "GA"
 },
 {
   "FIELD1": 452,
   "nameRest": "Superica",
   "latitudeRest": "33.85995101501122",
   "longitudeRest": "-84.381151",
   "rating": 4,
   "code": "GA"
 },
 {
   "FIELD1": 453,
   "nameRest": "Chido & Padre's",
   "latitudeRest": "33.84248",
   "longitudeRest": "-84.38318",
   "rating": 3.5,
   "code": "GA"
 },
 {
   "FIELD1": 454,
   "nameRest": "Tienda y Carniceria El Ejido",
   "latitudeRest": "33.6696091",
   "longitudeRest": "-84.4441528",
   "rating": 4.5,
   "code": "GA"
 },
 {
   "FIELD1": 455,
   "nameRest": "Taqueria El Vecino",
   "latitudeRest": "33.8239171",
   "longitudeRest": "-84.2939897",
   "rating": 3.5,
   "code": "GA"
 },
 {
   "FIELD1": 456,
   "nameRest": "Bar-Bacoa",
   "latitudeRest": "33.7824519",
   "longitudeRest": "-84.3548314",
   "rating": 4.5,
   "code": "GA"
 },
 {
   "FIELD1": 457,
   "nameRest": "Mercado Acapulco",
   "latitudeRest": "33.8144712074455",
   "longitudeRest": "-84.3529831136998",
   "rating": 4,
   "code": "GA"
 },
 {
   "FIELD1": 458,
   "nameRest": "Raging Burrito & Taco",
   "latitudeRest": "33.77442",
   "longitudeRest": "-84.29547",
   "rating": 4,
   "code": "GA"
 },
 {
   "FIELD1": 459,
   "nameRest": "Superica",
   "latitudeRest": "33.7567856669846",
   "longitudeRest": "-84.3640184920654",
   "rating": 4,
   "code": "GA"
 },
 {
   "FIELD1": 460,
   "nameRest": "Taqueria Oaxaquena De La Guelaguetza",
   "latitudeRest": "33.86687",
   "longitudeRest": "-84.184801",
   "rating": 4.5,
   "code": "GA"
 },
 {
   "FIELD1": 461,
   "nameRest": "El Bandido Mex Mex Grill",
   "latitudeRest": "33.7633330863735",
   "longitudeRest": "-84.3515967635537",
   "rating": 4,
   "code": "GA"
 },
 {
   "FIELD1": 462,
   "nameRest": "Alma Cocina - Downtown",
   "latitudeRest": "33.759156314923",
   "longitudeRest": "-84.3874444429916",
   "rating": 4,
   "code": "GA"
 },
 {
   "FIELD1": 463,
   "nameRest": "Las Costas Nayaritas",
   "latitudeRest": "33.942616",
   "longitudeRest": "-84.124198",
   "rating": 4,
   "code": "GA"
 },
 {
   "FIELD1": 464,
   "nameRest": "Taqueria La Carreta",
   "latitudeRest": "33.8424612046155",
   "longitudeRest": "-84.3268703240597",
   "rating": 4,
   "code": "GA"
 },
 {
   "FIELD1": 465,
   "nameRest": "Tin Lizzy's Cantina",
   "latitudeRest": "33.8541015885888",
   "longitudeRest": "-84.381980533072",
   "rating": 3.5,
   "code": "GA"
 },
 {
   "FIELD1": 466,
   "nameRest": "Tuza Taco",
   "latitudeRest": "33.7967893982086",
   "longitudeRest": "-84.4158232212067",
   "rating": 4.5,
   "code": "GA"
 },
 {
   "FIELD1": 467,
   "nameRest": "bartaco",
   "latitudeRest": "33.77873",
   "longitudeRest": "-84.40932",
   "rating": 4,
   "code": "GA"
 },
 {
   "FIELD1": 468,
   "nameRest": "Taqueria San Pancho",
   "latitudeRest": "33.867515",
   "longitudeRest": "-84.191697",
   "rating": 4.5,
   "code": "GA"
 },
 {
   "FIELD1": 469,
   "nameRest": "Tacos and Tequilas Mexican Grill",
   "latitudeRest": "34.074622",
   "longitudeRest": "-83.986671",
   "rating": 4,
   "code": "GA"
 },
 {
   "FIELD1": 470,
   "nameRest": "Guac Y Margys",
   "latitudeRest": "33.7883549",
   "longitudeRest": "-84.3689486",
   "rating": 4.5,
   "code": "GA"
 },
 {
   "FIELD1": 471,
   "nameRest": "Bartaco Chastain Park",
   "latitudeRest": "33.8583718717711",
   "longitudeRest": "-84.3814183244675",
   "rating": 4,
   "code": "GA"
 },
 {
   "FIELD1": 472,
   "nameRest": "La Hacienda",
   "latitudeRest": "33.7792475343969",
   "longitudeRest": "-84.3695475412117",
   "rating": 3.5,
   "code": "GA"
 },
 {
   "FIELD1": 473,
   "nameRest": "Rreal Tacos",
   "latitudeRest": "33.7774837176681",
   "longitudeRest": "-84.3834526399158",
   "rating": 4,
   "code": "GA"
 },
 {
   "FIELD1": 474,
   "nameRest": "Armando’s Mexican Restaurant",
   "latitudeRest": "33.566406",
   "longitudeRest": "-84.581457",
   "rating": 4.5,
   "code": "GA"
 },
 {
   "FIELD1": 475,
   "nameRest": "Velvet Taco",
   "latitudeRest": "33.83985",
   "longitudeRest": "-84.3810005042992",
   "rating": 4,
   "code": "GA"
 },
 {
   "FIELD1": 476,
   "nameRest": "Guac y Margys",
   "latitudeRest": "33.7555524120715",
   "longitudeRest": "-84.3653237729713",
   "rating": 4,
   "code": "GA"
 },
 {
   "FIELD1": 477,
   "nameRest": "Red Pepper Taqueria",
   "latitudeRest": "33.84267",
   "longitudeRest": "-84.37027",
   "rating": 3.5,
   "code": "GA"
 },
 {
   "FIELD1": 478,
   "nameRest": "Los Chaparros Mexican Restaurant",
   "latitudeRest": "21.2959263",
   "longitudeRest": "-157.8268968",
   "rating": 4,
   "code": "HI"
 },
 {
   "FIELD1": 479,
   "nameRest": "Taqueria La Marea",
   "latitudeRest": "21.32224",
   "longitudeRest": "-157.883763",
   "rating": 4.5,
   "code": "HI"
 },
 {
   "FIELD1": 480,
   "nameRest": "Alejandros Mexican Food - Honolulu",
   "latitudeRest": "21.35241",
   "longitudeRest": "-157.85787",
   "rating": 4.5,
   "code": "HI"
 },
 {
   "FIELD1": 481,
   "nameRest": "Alejandro’s Mexican Food Kapahulu",
   "latitudeRest": "21.2857507496816",
   "longitudeRest": "-157.813334347826",
   "rating": 4,
   "code": "HI"
 },
 {
   "FIELD1": 482,
   "nameRest": "Taqueria El Ranchero",
   "latitudeRest": "21.49628233",
   "longitudeRest": "-158.02555694",
   "rating": 4,
   "code": "HI"
 },
 {
   "FIELD1": 483,
   "nameRest": "Margaritas",
   "latitudeRest": "21.29691",
   "longitudeRest": "-157.84246",
   "rating": 4,
   "code": "HI"
 },
 {
   "FIELD1": 484,
   "nameRest": "Cocina De Roja",
   "latitudeRest": "21.293924",
   "longitudeRest": "-157.825863",
   "rating": 4.5,
   "code": "HI"
 },
 {
   "FIELD1": 485,
   "nameRest": "Mexico Restaurant",
   "latitudeRest": "21.33085",
   "longitudeRest": "-157.86569",
   "rating": 3.5,
   "code": "HI"
 },
 {
   "FIELD1": 486,
   "nameRest": "Barrio Cafe",
   "latitudeRest": "21.49872211916",
   "longitudeRest": "-158.028310015798",
   "rating": 4.5,
   "code": "HI"
 },
 {
   "FIELD1": 487,
   "nameRest": "Serg's Mexican Kitchen",
   "latitudeRest": "21.308898",
   "longitudeRest": "-157.812282",
   "rating": 3.5,
   "code": "HI"
 },
 {
   "FIELD1": 488,
   "nameRest": "Buho Cocina Y Cantina",
   "latitudeRest": "21.2794777788835",
   "longitudeRest": "-157.828754",
   "rating": 3.5,
   "code": "HI"
 },
 {
   "FIELD1": 489,
   "nameRest": "Oahu Mexican Grill",
   "latitudeRest": "21.27336",
   "longitudeRest": "-157.82353",
   "rating": 3.5,
   "code": "HI"
 },
 {
   "FIELD1": 490,
   "nameRest": "El Palenque",
   "latitudeRest": "21.493419",
   "longitudeRest": "-158.028971",
   "rating": 4,
   "code": "HI"
 },
 {
   "FIELD1": 491,
   "nameRest": "Tio's Tamales",
   "latitudeRest": "21.3136857748032",
   "longitudeRest": "-157.858428284526",
   "rating": 4.5,
   "code": "HI"
 },
 {
   "FIELD1": 492,
   "nameRest": "Aloha Tortilla Factory & Cafe",
   "latitudeRest": "21.30703340000148",
   "longitudeRest": "-157.86582747548292",
   "rating": 4.5,
   "code": "HI"
 },
 {
   "FIELD1": 493,
   "nameRest": "Dos Jefes",
   "latitudeRest": "21.320174617926245",
   "longitudeRest": "-157.81079405531727",
   "rating": 5,
   "code": "HI"
 },
 {
   "FIELD1": 494,
   "nameRest": "Azteca Mexican Restaurant",
   "latitudeRest": "21.2825696",
   "longitudeRest": "-157.7989963",
   "rating": 4,
   "code": "HI"
 },
 {
   "FIELD1": 495,
   "nameRest": "La Pina Cantina",
   "latitudeRest": "21.27908721985047",
   "longitudeRest": "-157.8258567320852",
   "rating": 4,
   "code": "HI"
 },
 {
   "FIELD1": 496,
   "nameRest": "La Casita",
   "latitudeRest": "21.385298520714727",
   "longitudeRest": "-158.00215926830188",
   "rating": 4.5,
   "code": "HI"
 },
 {
   "FIELD1": 497,
   "nameRest": "Pacos Tacos Honolulu",
   "latitudeRest": "21.31859",
   "longitudeRest": "-157.86535",
   "rating": 4,
   "code": "HI"
 },
 {
   "FIELD1": 498,
   "nameRest": "El Mariachi 2",
   "latitudeRest": "21.378526",
   "longitudeRest": "-157.931564",
   "rating": 4,
   "code": "HI"
 },
 {
   "FIELD1": 499,
   "nameRest": "Thyda's Tacos",
   "latitudeRest": "21.29556",
   "longitudeRest": "-157.85235",
   "rating": 4.5,
   "code": "HI"
 },
 {
   "FIELD1": 500,
   "nameRest": "Taco'ako",
   "latitudeRest": "21.29848",
   "longitudeRest": "-157.86141",
   "rating": 4,
   "code": "HI"
 },
 {
   "FIELD1": 501,
   "nameRest": "Taco Kabana",
   "latitudeRest": "21.30955",
   "longitudeRest": "-157.86035",
   "rating": 4.5,
   "code": "HI"
 },
 {
   "FIELD1": 502,
   "nameRest": "Tlacuaches808",
   "latitudeRest": "21.28098862794167",
   "longitudeRest": "-157.82968902519863",
   "rating": 4.5,
   "code": "HI"
 },
 {
   "FIELD1": 503,
   "nameRest": "Tlaxcalli",
   "latitudeRest": "21.312186978105654",
   "longitudeRest": "-157.8620819846584",
   "rating": 4,
   "code": "HI"
 },
 {
   "FIELD1": 504,
   "nameRest": "Taqueria El Gallo Rosa",
   "latitudeRest": "21.3928551",
   "longitudeRest": "-157.7439945",
   "rating": 4.5,
   "code": "HI"
 },
 {
   "FIELD1": 505,
   "nameRest": "Chile Relleno",
   "latitudeRest": "21.4367168593107",
   "longitudeRest": "-157.826396046696",
   "rating": 4,
   "code": "HI"
 },
 {
   "FIELD1": 506,
   "nameRest": "Oahu Mexican Grill",
   "latitudeRest": "21.289375",
   "longitudeRest": "-157.811516",
   "rating": 3.5,
   "code": "HI"
 },
 {
   "FIELD1": 507,
   "nameRest": "Mayita's Grill",
   "latitudeRest": "21.289893",
   "longitudeRest": "-157.838866",
   "rating": 4.5,
   "code": "HI"
 },
 {
   "FIELD1": 508,
   "nameRest": "Aloha Mamacita",
   "latitudeRest": "21.38360790212874",
   "longitudeRest": "-158.0044118432321",
   "rating": 4.5,
   "code": "HI"
 },
 {
   "FIELD1": 509,
   "nameRest": "Alfaro’s",
   "latitudeRest": "21.32104",
   "longitudeRest": "-157.86099",
   "rating": 5,
   "code": "HI"
 },
 {
   "FIELD1": 510,
   "nameRest": "El Charro Mexicano Restaurant",
   "latitudeRest": "21.378805",
   "longitudeRest": "-157.929846",
   "rating": 3.5,
   "code": "HI"
 },
 {
   "FIELD1": 511,
   "nameRest": "Encore Saloon",
   "latitudeRest": "21.3112912327051",
   "longitudeRest": "-157.862063348293",
   "rating": 4,
   "code": "HI"
 },
 {
   "FIELD1": 512,
   "nameRest": "El Jalisciense",
   "latitudeRest": "21.4022887599252",
   "longitudeRest": "-158.006744720042",
   "rating": 4.5,
   "code": "HI"
 },
 {
   "FIELD1": 513,
   "nameRest": "Mexico Lindo Kailua",
   "latitudeRest": "21.3942845797053",
   "longitudeRest": "-157.741456012967",
   "rating": 3,
   "code": "HI"
 },
 {
   "FIELD1": 514,
   "nameRest": "Chronic Tacos",
   "latitudeRest": "21.28329437518026",
   "longitudeRest": "-157.81464932944914",
   "rating": 3.5,
   "code": "HI"
 },
 {
   "FIELD1": 515,
   "nameRest": "La Birria",
   "latitudeRest": "21.29865469799536",
   "longitudeRest": "-157.8583902141613",
   "rating": 4,
   "code": "HI"
 },
 {
   "FIELD1": 516,
   "nameRest": "Tacoholics HI",
   "latitudeRest": "21.29622",
   "longitudeRest": "-157.85517",
   "rating": 4,
   "code": "HI"
 },
 {
   "FIELD1": 517,
   "nameRest": "La Birria Food Truck",
   "latitudeRest": "21.3084259",
   "longitudeRest": "-157.8633898",
   "rating": 4.5,
   "code": "HI"
 },
 {
   "FIELD1": 518,
   "nameRest": "Don Goyo’s Mexican Food",
   "latitudeRest": "21.400550831713918",
   "longitudeRest": "-157.79833411419068",
   "rating": 4,
   "code": "HI"
 },
 {
   "FIELD1": 519,
   "nameRest": "Frida's Hawaii",
   "latitudeRest": "21.380387",
   "longitudeRest": "-158.017718",
   "rating": 4.5,
   "code": "HI"
 },
 {
   "FIELD1": 520,
   "nameRest": "Paniolos - Honolulu",
   "latitudeRest": "21.27699",
   "longitudeRest": "-157.78641",
   "rating": 3.5,
   "code": "HI"
 },
 {
   "FIELD1": 521,
   "nameRest": "Aloha Salsa",
   "latitudeRest": "21.29697",
   "longitudeRest": "-157.85114",
   "rating": 4.5,
   "code": "HI"
 },
 {
   "FIELD1": 522,
   "nameRest": "DJs Street Tacos",
   "latitudeRest": "21.2946895974",
   "longitudeRest": "-157.847176082",
   "rating": 5,
   "code": "HI"
 },
 {
   "FIELD1": 523,
   "nameRest": "Paniolos - Kailua",
   "latitudeRest": "21.3941547765195",
   "longitudeRest": "-157.741368603612",
   "rating": 4,
   "code": "HI"
 },
 {
   "FIELD1": 524,
   "nameRest": "Mami's Empanadas",
   "latitudeRest": "21.2732237",
   "longitudeRest": "-157.8217401",
   "rating": 4.5,
   "code": "HI"
 },
 {
   "FIELD1": 525,
   "nameRest": "BIC Tacos",
   "latitudeRest": "21.3075932399758",
   "longitudeRest": "-157.861974489733",
   "rating": 4.5,
   "code": "HI"
 },
 {
   "FIELD1": 526,
   "nameRest": "Acapulco",
   "latitudeRest": "21.4127148306381",
   "longitudeRest": "-157.998865874869",
   "rating": 3.5,
   "code": "HI"
 },
 {
   "FIELD1": 527,
   "nameRest": "Griddled",
   "latitudeRest": "21.29614",
   "longitudeRest": "-157.854999",
   "rating": 4,
   "code": "HI"
 },
 {
   "FIELD1": 528,
   "nameRest": "EL Mezcalito",
   "latitudeRest": "42.0228378",
   "longitudeRest": "-93.4525413",
   "rating": 5,
   "code": "IA"
 },
 {
   "FIELD1": 529,
   "nameRest": "La Casa Maya",
   "latitudeRest": "42.02364783",
   "longitudeRest": "-93.61941367",
   "rating": 4.5,
   "code": "IA"
 },
 {
   "FIELD1": 530,
   "nameRest": "El Maguey Mexican Grill & Bar",
   "latitudeRest": "42.020605",
   "longitudeRest": "-93.610369",
   "rating": 4,
   "code": "IA"
 },
 {
   "FIELD1": 531,
   "nameRest": "El Cerrito",
   "latitudeRest": "41.961825",
   "longitudeRest": "-92.577327",
   "rating": 5,
   "code": "IA"
 },
 {
   "FIELD1": 532,
   "nameRest": "Ay Caramba",
   "latitudeRest": "42.0495602819308",
   "longitudeRest": "-92.9145477489454",
   "rating": 5,
   "code": "IA"
 },
 {
   "FIELD1": 533,
   "nameRest": "El Azteca",
   "latitudeRest": "42.0499952",
   "longitudeRest": "-93.6455455",
   "rating": 4,
   "code": "IA"
 },
 {
   "FIELD1": 534,
   "nameRest": "Pancho Villa",
   "latitudeRest": "41.87181",
   "longitudeRest": "-93.81541",
   "rating": 5,
   "code": "IA"
 },
 {
   "FIELD1": 535,
   "nameRest": "Cantaritos Grill And Cantina",
   "latitudeRest": "41.407743",
   "longitudeRest": "-92.925755",
   "rating": 4.5,
   "code": "IA"
 },
 {
   "FIELD1": 536,
   "nameRest": "La Carreta Mexican Grill",
   "latitudeRest": "42.0073623657227",
   "longitudeRest": "-92.9071807861328",
   "rating": 4.5,
   "code": "IA"
 },
 {
   "FIELD1": 537,
   "nameRest": "Tacos Y Mariscos Maravilla",
   "latitudeRest": "42.0498790088073",
   "longitudeRest": "-92.9121770569991",
   "rating": 4.5,
   "code": "IA"
 },
 {
   "FIELD1": 538,
   "nameRest": "Guadalajara Mexican Restaurant",
   "latitudeRest": "41.73063",
   "longitudeRest": "-93.58172",
   "rating": 4,
   "code": "IA"
 },
 {
   "FIELD1": 539,
   "nameRest": "Amigos Mexican Grill",
   "latitudeRest": "41.736016",
   "longitudeRest": "-93.601218",
   "rating": 4.5,
   "code": "IA"
 },
 {
   "FIELD1": 540,
   "nameRest": "El Sombrero",
   "latitudeRest": "41.6993713378906",
   "longitudeRest": "-93.0381546020508",
   "rating": 3.5,
   "code": "IA"
 },
 {
   "FIELD1": 541,
   "nameRest": "Mi Casita",
   "latitudeRest": "42.0220832824707",
   "longitudeRest": "-93.4518966674805",
   "rating": 4,
   "code": "IA"
 },
 {
   "FIELD1": 542,
   "nameRest": "Los Altos Mexican Restaurant",
   "latitudeRest": "41.6917724609375",
   "longitudeRest": "-93.46372985839844",
   "rating": 4.5,
   "code": "IA"
 },
 {
   "FIELD1": 543,
   "nameRest": "Cancun Grill and Cantina",
   "latitudeRest": "41.753891",
   "longitudeRest": "-93.59945",
   "rating": 4.5,
   "code": "IA"
 },
 {
   "FIELD1": 544,
   "nameRest": "La Terraza Mexican Grill",
   "latitudeRest": "41.9888481640505",
   "longitudeRest": "-92.5853547119216",
   "rating": 5,
   "code": "IA"
 },
 {
   "FIELD1": 545,
   "nameRest": "Los Altos Mexican Restaurant",
   "latitudeRest": "42.187469499808",
   "longitudeRest": "-93.5769243412839",
   "rating": 4,
   "code": "IA"
 },
 {
   "FIELD1": 546,
   "nameRest": "Tacos Mariana's",
   "latitudeRest": "41.6006",
   "longitudeRest": "-93.63453",
   "rating": 4.5,
   "code": "IA"
 },
 {
   "FIELD1": 547,
   "nameRest": "Plaza Mexico",
   "latitudeRest": "42.042077",
   "longitudeRest": "-92.92788804110198",
   "rating": 4,
   "code": "IA"
 },
 {
   "FIELD1": 548,
   "nameRest": "El Molcajete",
   "latitudeRest": "41.731333",
   "longitudeRest": "-93.596261",
   "rating": 4,
   "code": "IA"
 },
 {
   "FIELD1": 549,
   "nameRest": "Cocina Hernandez",
   "latitudeRest": "41.677411",
   "longitudeRest": "-93.2453073",
   "rating": 3.5,
   "code": "IA"
 },
 {
   "FIELD1": 550,
   "nameRest": "La Carreta",
   "latitudeRest": "42.04304",
   "longitudeRest": "-93.88041",
   "rating": 3,
   "code": "IA"
 },
 {
   "FIELD1": 551,
   "nameRest": "Pancho Villa",
   "latitudeRest": "42.36089",
   "longitudeRest": "-92.79295",
   "rating": 4.5,
   "code": "IA"
 },
 {
   "FIELD1": 552,
   "nameRest": "La Cabana Mexican Restaurant",
   "latitudeRest": "41.698405",
   "longitudeRest": "-93.021322",
   "rating": 3.5,
   "code": "IA"
 },
 {
   "FIELD1": 553,
   "nameRest": "Giliberto's",
   "latitudeRest": "41.6529405275476",
   "longitudeRest": "-93.5036484804533",
   "rating": 4,
   "code": "IA"
 },
 {
   "FIELD1": 554,
   "nameRest": "Los Girasoles",
   "latitudeRest": "41.7325258721912",
   "longitudeRest": "-92.7276962623",
   "rating": 4,
   "code": "IA"
 },
 {
   "FIELD1": 555,
   "nameRest": "El Azteca",
   "latitudeRest": "42.008738",
   "longitudeRest": "-93.5805179",
   "rating": 3.5,
   "code": "IA"
 },
 {
   "FIELD1": 556,
   "nameRest": "El Toreado Mexican Bar & Grill",
   "latitudeRest": "41.570728",
   "longitudeRest": "-93.754525",
   "rating": 4.5,
   "code": "IA"
 },
 {
   "FIELD1": 557,
   "nameRest": "Fiesta Mexican Restaurant",
   "latitudeRest": "41.6000255",
   "longitudeRest": "-93.517744",
   "rating": 4.5,
   "code": "IA"
 },
 {
   "FIELD1": 558,
   "nameRest": "La Fiesta Bar & Grill",
   "latitudeRest": "42.054527",
   "longitudeRest": "-93.6230872",
   "rating": 3,
   "code": "IA"
 },
 {
   "FIELD1": 559,
   "nameRest": "Mojitos",
   "latitudeRest": "41.70356",
   "longitudeRest": "-93.58522",
   "rating": 4.5,
   "code": "IA"
 },
 {
   "FIELD1": 560,
   "nameRest": "Plaza Veracruz",
   "latitudeRest": "42.5067192201609",
   "longitudeRest": "-93.2623443379998",
   "rating": 5,
   "code": "IA"
 },
 {
   "FIELD1": 561,
   "nameRest": "Taco Royale",
   "latitudeRest": "42.054519",
   "longitudeRest": "-93.623097",
   "rating": 5,
   "code": "IA"
 },
 {
   "FIELD1": 562,
   "nameRest": "Hacienda Vieja",
   "latitudeRest": "41.6874679817785",
   "longitudeRest": "-93.7811710685491",
   "rating": 4,
   "code": "IA"
 },
 {
   "FIELD1": 563,
   "nameRest": "Maria's Tacos",
   "latitudeRest": "42.05028",
   "longitudeRest": "-92.91553",
   "rating": 4.5,
   "code": "IA"
 },
 {
   "FIELD1": 564,
   "nameRest": "Hidalgo Mexican Bar & Grill",
   "latitudeRest": "41.712488",
   "longitudeRest": "-93.618326",
   "rating": 4,
   "code": "IA"
 },
 {
   "FIELD1": 565,
   "nameRest": "Los Charros",
   "latitudeRest": "41.710033",
   "longitudeRest": "-93.582454",
   "rating": 3.5,
   "code": "IA"
 },
 {
   "FIELD1": 566,
   "nameRest": "Casa De Oro",
   "latitudeRest": "41.8400191",
   "longitudeRest": "-94.1055906",
   "rating": 4,
   "code": "IA"
 },
 {
   "FIELD1": 567,
   "nameRest": "El Charro Mexican Grill",
   "latitudeRest": "41.4037857055664",
   "longitudeRest": "-92.9159927368164",
   "rating": 3.5,
   "code": "IA"
 },
 {
   "FIELD1": 568,
   "nameRest": "Guadalajara Mexican Restaurant",
   "latitudeRest": "41.658853",
   "longitudeRest": "-93.497269",
   "rating": 4,
   "code": "IA"
 },
 {
   "FIELD1": 569,
   "nameRest": "Amigo Mexican Restaurant",
   "latitudeRest": "41.6544529",
   "longitudeRest": "-93.7355813",
   "rating": 4.5,
   "code": "IA"
 },
 {
   "FIELD1": 570,
   "nameRest": "Mi Ranchito Mexican Grill & Seafood",
   "latitudeRest": "42.0416041151247",
   "longitudeRest": "-92.9305225610733",
   "rating": 3,
   "code": "IA"
 },
 {
   "FIELD1": 571,
   "nameRest": "Mojitos Mexican Restaurant",
   "latitudeRest": "41.7600460520061",
   "longitudeRest": "-93.8204999528386",
   "rating": 5,
   "code": "IA"
 },
 {
   "FIELD1": 572,
   "nameRest": "Cazador",
   "latitudeRest": "41.7323150634766",
   "longitudeRest": "-93.5801620483398",
   "rating": 3.5,
   "code": "IA"
 },
 {
   "FIELD1": 573,
   "nameRest": "Botanero Latino Colombian & International Cuisine",
   "latitudeRest": "42.0224684011339",
   "longitudeRest": "-93.6040483787656",
   "rating": 4,
   "code": "IA"
 },
 {
   "FIELD1": 574,
   "nameRest": "Mama's Family Diner",
   "latitudeRest": "42.4074249",
   "longitudeRest": "-93.0646667",
   "rating": 4.5,
   "code": "IA"
 },
 {
   "FIELD1": 575,
   "nameRest": "Flame The Taqueria",
   "latitudeRest": "41.665304",
   "longitudeRest": "-93.697102",
   "rating": 4.5,
   "code": "IA"
 },
 {
   "FIELD1": 576,
   "nameRest": "Zamora Fresh Market",
   "latitudeRest": "42.04949",
   "longitudeRest": "-92.91269",
   "rating": 4,
   "code": "IA"
 },
 {
   "FIELD1": 577,
   "nameRest": "Cactus 2",
   "latitudeRest": "42.02263832864036",
   "longitudeRest": "-93.6496109",
   "rating": 4.5,
   "code": "IA"
 },
 {
   "FIELD1": 578,
   "nameRest": "Taqueria La Flama",
   "latitudeRest": "43.620076",
   "longitudeRest": "-116.277242638171",
   "rating": 4.5,
   "code": "ID"
 },
 {
   "FIELD1": 579,
   "nameRest": "Andrade's Restaurante Mexicano",
   "latitudeRest": "43.5901321",
   "longitudeRest": "-116.2390465",
   "rating": 4,
   "code": "ID"
 },
 {
   "FIELD1": 580,
   "nameRest": "The Matador",
   "latitudeRest": "43.6169758579741",
   "longitudeRest": "-116.202467844938",
   "rating": 4,
   "code": "ID"
 },
 {
   "FIELD1": 581,
   "nameRest": "Barrigas Mexican Restaurant",
   "latitudeRest": "43.6228785390103",
   "longitudeRest": "-116.2404692173",
   "rating": 4.5,
   "code": "ID"
 },
 {
   "FIELD1": 582,
   "nameRest": "Carniceria Coalcoman",
   "latitudeRest": "43.6191149",
   "longitudeRest": "-116.2464202",
   "rating": 4.5,
   "code": "ID"
 },
 {
   "FIELD1": 583,
   "nameRest": "Lima Limon Restaurant",
   "latitudeRest": "43.49037",
   "longitudeRest": "-116.41758",
   "rating": 4.5,
   "code": "ID"
 },
 {
   "FIELD1": 584,
   "nameRest": "El Chavo Taqueria",
   "latitudeRest": "43.589642",
   "longitudeRest": "-116.218825",
   "rating": 4.5,
   "code": "ID"
 },
 {
   "FIELD1": 585,
   "nameRest": "Lorena's Mexican Grill",
   "latitudeRest": "43.6199086497827",
   "longitudeRest": "-116.295030687948",
   "rating": 4.5,
   "code": "ID"
 },
 {
   "FIELD1": 586,
   "nameRest": "The Tortilla Factory Mexican Grill",
   "latitudeRest": "43.5912131",
   "longitudeRest": "-116.2806151",
   "rating": 4,
   "code": "ID"
 },
 {
   "FIELD1": 587,
   "nameRest": "Tin Roof Tacos",
   "latitudeRest": "43.610368",
   "longitudeRest": "-116.193978",
   "rating": 4,
   "code": "ID"
 },
 {
   "FIELD1": 588,
   "nameRest": "Txikiteo",
   "latitudeRest": "43.6198831911172",
   "longitudeRest": "-116.210133269836",
   "rating": 4.5,
   "code": "ID"
 },
 {
   "FIELD1": 589,
   "nameRest": "Mi Casa Mexican Restaurant",
   "latitudeRest": "43.6027879",
   "longitudeRest": "-116.3539036",
   "rating": 4,
   "code": "ID"
 },
 {
   "FIELD1": 590,
   "nameRest": "Meshico",
   "latitudeRest": "43.6025026560469",
   "longitudeRest": "-116.253900043666",
   "rating": 5,
   "code": "ID"
 },
 {
   "FIELD1": 591,
   "nameRest": "Madre - Boutique Taqueria",
   "latitudeRest": "43.6079160867468",
   "longitudeRest": "-116.212987303734",
   "rating": 4.5,
   "code": "ID"
 },
 {
   "FIELD1": 592,
   "nameRest": "Wetos Locos",
   "latitudeRest": "43.6150186",
   "longitudeRest": "-116.2023137",
   "rating": 5,
   "code": "ID"
 },
 {
   "FIELD1": 593,
   "nameRest": "Corona Village",
   "latitudeRest": "43.645786",
   "longitudeRest": "-116.242874",
   "rating": 4,
   "code": "ID"
 },
 {
   "FIELD1": 594,
   "nameRest": "Diablo & Sons Saloon",
   "latitudeRest": "43.6167181267123",
   "longitudeRest": "-116.202353969895",
   "rating": 4,
   "code": "ID"
 },
 {
   "FIELD1": 595,
   "nameRest": "Campos Market",
   "latitudeRest": "43.6083723",
   "longitudeRest": "-116.2435949",
   "rating": 4,
   "code": "ID"
 },
 {
   "FIELD1": 596,
   "nameRest": "Parrilla Grill",
   "latitudeRest": "43.569202",
   "longitudeRest": "-116.222711",
   "rating": 5,
   "code": "ID"
 },
 {
   "FIELD1": 597,
   "nameRest": "Chapala Mexican Restaurant",
   "latitudeRest": "43.59324",
   "longitudeRest": "-116.21402",
   "rating": 3.5,
   "code": "ID"
 },
 {
   "FIELD1": 598,
   "nameRest": "Casa Mexico",
   "latitudeRest": "43.6304286",
   "longitudeRest": "-116.2034449",
   "rating": 3.5,
   "code": "ID"
 },
 {
   "FIELD1": 599,
   "nameRest": "Pueblo Lindo",
   "latitudeRest": "43.63529",
   "longitudeRest": "-116.355879",
   "rating": 4,
   "code": "ID"
 },
 {
   "FIELD1": 600,
   "nameRest": "Enriques",
   "latitudeRest": "43.4910807307126",
   "longitudeRest": "-116.421777752892",
   "rating": 4,
   "code": "ID"
 },
 {
   "FIELD1": 601,
   "nameRest": "Taco Veloz",
   "latitudeRest": "43.6196667",
   "longitudeRest": "-116.2653317",
   "rating": 4.5,
   "code": "ID"
 },
 {
   "FIELD1": 602,
   "nameRest": "Adelitas Food Truck",
   "latitudeRest": "43.590175",
   "longitudeRest": "-116.203239",
   "rating": 4.5,
   "code": "ID"
 },